名称,纬度,经度
高新奇南门,22.57697992,113.9208391
安通达工业区,22.58200614,113.9236843
文阁合力五路口,22.79141677,113.8731829
博文学校,22.68576418,114.0342973
倚山花园,22.56287705,114.2321777
东湖公园南门调度室,22.55574875,114.1425315
观兰副站,22.70257097,114.0479889
978车队副站,22.72643076,114.3528338
M275年丰1,22.76873519,114.3279109
939田心副站,22.69728149,114.4273823
M278宝龙总站,22.70069685,114.3180262
M308坪地总站,22.77940401,114.3124924
M203线西丽副站,22.59900543,113.960757
365/E20线坪山总站,22.6945964,114.3925161
龙岗同乐总站,22.71761593,114.3129557
福田南,22.53751654,114.0720353
火车站西广场公交总站,22.5319586,114.1119739
福永桥头综合场站,22.68937815,113.8097031
钟表基地,22.76809873,113.8780493
盐田区党校,22.56630949,114.2407458
50小区,22.56508593,114.2376772
蓝色海月居,22.56381437,114.2355322
信息枢纽大厦,22.53816024,114.0513542
根玉路口,22.72394582,113.8910385
光侨立交西,22.72449341,113.8981623
光侨雅苑,22.72675113,113.9129525
海纳中心,22.72758076,113.9209305
裕安路口①,22.57037919,113.889857
上川路口①,22.57502467,113.8848691
西乡路口①,22.57979407,113.8798459
横坪沙湖路口,22.67921818,114.3195633
龙岐,22.57317127,114.4965925
葵涌办事处,22.63776166,114.4217183
大鹏新区行政服务大厅,22.64072857,114.4202649
沿江西乡北出口,22.57166929,113.8424365
御康华庭,22.70212982,113.9250729
水田社康中心,22.68851664,113.9590607
沿江桥底,22.57775855,113.836222
沿江大铲湾口,22.55938734,113.8520109
金湾西乡大道路口,22.56302901,113.8488831
福田高铁站,22.54073638,114.0517406
红树西岸,22.52755818,113.9622006
安托山总站,22.55382928,114.0040519
聚豪酒店,22.77652875,113.8292939
新玉路庄村公交总站,22.72874627,113.8601806
壆岗盛芳园总站,22.74101606,113.8123597
立健药业,22.68583364,113.9813107
龙华和平工业园总站,22.67348502,114.0169289
宝安中心医院①,22.582141,113.8774512
西乡立交②,22.58665477,113.873244
宝安交警大队①,22.64434925,113.8306821
怡丰酒店①,22.65433794,113.8225375
宝安艺术城①,22.57083424,113.8979899
国家基因库,22.58916731,114.4623713
大鹏文体中心,22.6018536,114.4684048
大鹏山庄,22.60207534,114.4737396
叠福新村,22.60066133,114.4775236
下沙新村,22.59984063,114.4758439
顺生物流,22.56944936,113.8440848
西湾公园南,22.58852167,113.8336967
一电科技,22.65077377,113.9152631
兴城百货,22.80583398,113.8582995
庄村二路中,22.72137962,113.850925
庄村商业街,22.72342877,113.8513789
红星国际新城,22.76169077,113.8283533
后亭桥,22.75159185,113.816119
南医大深圳医院,22.54857559,113.8918544
南医大深圳医院南,22.54615291,113.8925962
桔钓沙,22.55751711,114.5511338
绿荫路北,22.72608712,114.3615584
横岗中学,22.65257509,114.1819388
世纪晶源,22.75741685,113.9244228
水田社区①,22.68656823,113.9565956
岩汽车站①,22.68635018,113.9239106
官田村①,22.68310213,113.9383467
长城工业区②,22.68883232,113.9499154
宝城三区总站,22.55883453,113.9031934
宝安交通局运输局①,22.56390491,113.8963732
水厂路口,22.57195899,114.4931323
龙海家园公交总站,22.53717421,113.9025916
罗田社区总站,22.81217505,113.871692
楼村广场,22.78784763,113.9193163
象山大道中,22.8042474,113.8754459
兴华花园,22.58461761,113.8586184
松岗卫生监督所,22.78196041,113.8468401
上横朗场站,22.68357352,113.9729339
福安雅园总站,22.72648769,114.0222344
和山嘉宏路口,22.71612245,113.7887545
洪田工业区,22.70977094,113.8491615
楼岗大洋工业区,22.76836056,113.859681
公明中心换乘站③,22.78086685,113.8935202
松元厦地铁站东,22.72337366,114.0622193
石岩湖温泉,22.70746998,113.8989879
沙井洪田火山公园,22.70754174,113.8524395
仙田总站,22.76189303,114.2659703
阳光科技园,22.69930354,114.3157427
南浦花园,22.70724761,113.8426434
沙井南沙幼儿园,22.71558906,113.7936987
信维通信,22.72047876,113.7943549
西环电子中心,22.72604931,113.7950552
沙井西部义乌,22.73019771,113.7954118
凯嘉酒店,22.73723664,113.7960188
黄泥园,22.71033639,114.3796907
黄贝岭村总站,22.55388418,114.1357884
沙井京基百纳西场站,22.73189628,113.8002995
和平里公交总站,22.64738185,114.0072199
凤凰山公交综合场站,22.69048412,113.8393871
锦绣观园公交总站,22.6969561,114.0238917
清湖场站,22.67354652,114.027735
大浪新百丽总站,22.6928439,113.9737674
民治梅陇公交总站,22.63263833,114.0306518
牛湖大水田场站（1）,22.74263135,114.0885217
西环沙二新村,22.74188989,113.7964024
沙四社区,22.75090645,113.7971897
腾芳花园,22.71072003,113.7947475
大浪部九窝总站,22.6411551,113.9982439
观澜茗语华苑,22.75889017,114.0285657
观澜商业广场,22.69290989,114.0472415
观澜长坑村,22.68338221,114.0567118
民治上塘地铁公交接驳站,22.63902989,114.0077442
M309车队横岗场站,22.66072722,114.2033369
科技园场站,22.56116164,113.9340053
松福向兴路口,22.76478353,113.7949655
友谊假日宾馆,22.76328287,113.7929749
飞跃纸业,22.75738237,113.7901018
惠华建材,22.75321426,113.7898315
沙井晟龙厂,22.74955394,113.789534
深科技校沙井校区,22.74441983,113.7890814
蚝二学府花园,22.73979763,113.7886878
新沙天虹购物中心,22.73301025,113.7956331
宝能地产,22.50329751,113.93402
沙河信息园,22.5350028,113.9562549
中兴人才公寓东,22.5763759,113.9341612
沙井西站,22.73616425,113.7883774
松福沙一天桥,22.72840957,113.7877395
兴英科技东,22.72311637,113.7872558
和平街路口,22.71747925,113.7867751
松福裕达富,22.71195507,113.7862985
艾默生西门,22.70522107,113.7857307
翰宇药业集团,22.70088228,113.7850696
松发工业园,22.69672926,113.7850147
中兴通讯宿舍,22.57711427,113.9306845
虎山路口,22.62319893,114.0609968
阳光湾畔,22.62501522,114.0566446
坂田二路路口,22.62314571,114.0611607
坂雪岗大道路口,22.62290333,114.0660533
环城路路口,22.62306467,114.071214
五园小学北,22.61710771,114.0665235
福海西站,22.6925998,113.7846533
德金财富广场,22.68737547,113.7842077
大族激光东,22.68350995,113.7838732
旭竟昌科技工业园,22.67914844,113.7834677
观澜黎光村,22.76348465,114.033365
观澜大富工业区,22.74139172,114.0210131
长圳人行天桥,22.72593518,113.9083333
径贝居委会,22.56936935,113.8690366
地质公园路中,22.53198047,114.5162984
人大附中九年部,22.63840755,114.4013735
坝光新村,22.64017485,114.3972382
国际低碳城,22.78568795,114.2861766
华业玫瑰郡,22.73407117,114.2332921
普联科技园,22.72963814,113.9101363
普联科技二期,22.72831088,113.9140403
展辰涂料,22.73239159,113.9781594
中海九号公馆,22.59879592,113.8958876
华美路中,22.75324908,113.858787
富之庆电子,22.75622385,113.8646121
龙景路口,22.79908035,113.872377
国科大医院西院区①,22.76716353,113.8986008
假日名居,22.55865226,113.8655054
西乡大铲湾码头,22.55258784,113.8552478
嘉康惠宝,22.70585967,113.9539822
新福大厦,22.73816272,113.8245215
赤子香路口,22.67015876,114.2959696
恒裕滨城,22.49772715,113.9360501
公明中心换乘站②,22.78086085,113.8935302
公明街道办,22.78290223,113.8895402
公明邮政①,22.78217624,113.8888586
公明天虹②,22.7838645,113.8883639
公明天虹①,22.78458603,113.8877542
公明汽车站②,22.77888664,113.8897887
公明中心换乘站,22.78077089,113.8935742
公明中英文学校,22.78035862,113.9056473
罗租社区,22.67781597,113.925699
同富裕一路,22.68555631,114.364975
市民中心西,22.54637329,114.0510391
龙悦居二期,22.60569364,114.0237878
致远南路,22.60575354,114.0253155
布吉阳光花园,22.61926987,114.1086032
M283辅城坳总站,22.69922001,114.0911881
818车队和大鹏中巴车队场站,22.59829946,114.4655608
罗湖文锦渡汽车站,22.54220551,114.1244605
坪地六联总站,22.78419563,114.3345169
宝安中学集团第二外国语学校,22.72627545,113.8307017579784
M385、882丹竹头主站,22.62756035,114.1527129
M385、882平安大道总站,22.62742944,114.1527521
坑梓基地,22.76439007,114.4123863
812汤坑主站1,22.67090802,114.3045116
梅沙380A公交副站,22.60551402,114.3222699
罗山水库,22.71338517,114.1124248
清湖地铁公交接驳站,22.66843265,114.0312622
樟坑径总站,22.68279554,114.0734115
大运地铁公交接驳站,22.68942322,114.2224306
M267平湖总站,22.68636196,114.123411
M269平湖总站,22.68674193,114.1234691
龙西场站2,22.75573814,114.2428193
松岗总站,22.77364043,113.8476056
龙岗佳得宝,22.75023729,114.2776607
牛角龙总站,22.68388564,114.3308059
大鹏中心②,22.59597965,114.4717673
嶂背工业区,22.69341906,114.2508396
南澳洋畴湾,22.51357211,114.4797909
汤坑总站,22.67254864,114.3039523
龙岗区残联,22.71140006,114.197234
怡景地铁站②,22.55714376,114.1363424
宝安机场候机楼,22.64812091,113.815485
前海华侨城酒店,22.55137753,113.8769734
海旺中学,22.55755304,113.8888588
宝安实验学校,22.54868012,113.8956486
新锦安雅园,22.55215169,113.9001204
常富楼,22.55506372,113.9035848
楼岗社区,22.76845286,113.8524245
光明成校,22.76775933,113.9474474
凤凰村,22.73098018,113.9427748
实验学校总站①,22.5519721,114.0851978
进港二路南,22.57123463,114.2544925
嘉长源创意园,22.60151983,114.2382865
周大福大厦,22.56675374,114.2434117
笋岗海关,22.56178935,114.1117566
新洲南村,22.5251132,114.0440471
九祥岭①,22.58640057,113.9497103
香缇湾花园,22.57695792,113.8554718
华厦新邨,22.55828332,113.8949245
宝海花园,22.56088919,113.8975152
海裕社康中心,22.56818026,113.8771897
金港华庭,22.58600231,113.8592366
新发厂,22.6044256,113.8542252
凤凰社区,22.69107572,113.8348331
坪地六联,22.79538535,114.3262976
大运新城充电站,22.70274662,114.1993925
宝华地铁站②,22.55254757,113.8811976
熙龙湾正门,22.5496693,113.8856066
惠科正门,22.69494891,113.9648992
水榭春天中,22.63006426,114.0210313
泥岗村牌坊,22.56865337,114.0947842
太阳雨家园,22.6184241,114.0686293
坪联金碧路口,22.68917604,114.3278171
坪山潮商广场北,22.68584852,114.3316815
华润深圳湾,22.51951408,113.9428921
金地大C区,22.68401644,114.0141827
羊龙新村,22.65549306,114.0039326
西头村,22.64319065,114.0171763
上合市场①,22.58271797,113.8964851
燕罗维稳综治中心,22.81161203,113.8590879
罗田社区,22.79889591,113.8699306
大富科技东,22.74215363,113.7849176
碧头地铁站北,22.78805998,113.8149987
塘坑总站,22.67985319,113.9439364
东涌沙岗村,22.49482683,114.5764519
溪涌社区,22.61077052,114.3526305
石岩塘坑总站,22.68009595,113.9440262
润达圆庭,22.62776701,114.0173309
民治中学南,22.63071082,114.0233452
泉新源工业区,22.67378168,113.9892367
泥岗地铁站,22.57018915,114.0925905
亚洲工业区,22.66949618,114.0581233
九围村总站,22.65609837,113.8626013
长岭东公交场站,22.55551542,114.1844505
华润城公交总站,22.55401241,113.9485273
德信昌科技园,22.6687146,114.0560754
华映显示科技,22.74297721,113.9200439
荔枝世界总站,22.61355236,113.9345614
永安北山路口,22.5975402,114.2462896
洲腾工业园,22.65991819,114.1200734
六约新村东,22.64612336,114.1716588
勒堡工业园,22.76963973,113.9465068
塘新路南,22.69335014,113.8151041
招商局智慧城,22.73988384,113.9411035
新和天桥②,22.67010121,113.8015576
大王山公园,22.71795391,113.8013099
深南北环立交③,22.55538193,113.9058276
深南北环立交②,22.55531499,113.9057046
深南北环立交①,22.55487595,113.9058966
坂田象角塘公交场站,22.65654109,114.0695514
澳佳工业园,22.68639252,114.1286468
平湖火车站,22.69415656,114.1229897
五和风门路口,22.67253703,114.0597566
信德学校,22.6943237,114.115452
复兴隆,22.7659172,114.2884457
中海康城国际南,22.70812206,114.2027175
深南北环立交,22.55316171,113.906795
西湾公园二期,22.59775684,113.8295961
集信雅苑②,22.77236607,113.8441851
莲馨家园,22.56812335,114.177309
罗湖区中医院,22.56884342,114.1763052
红晟市场,22.63730371,114.0955213
求知一路,22.69655519,114.056586
求知三路,22.69673045,114.0589587
官湖总站,22.60639901,114.4178996
曦城五号门,22.59658051,113.9027959
新桥天虹商场②,22.72233646,113.8235719
石介头微巴场站,22.79398538,113.9524683
岸上林居,22.74069642,114.2404775
大光勘村,22.62167549,114.062205
锦绣观园,22.69557746,114.0227792
大鹏新区管委会①,22.64181455,114.4136828
黎光工业区总站,22.75843482,114.0234606
臻鼎科技总站,22.79452015,113.8492683
洋涌工业区总站,22.79245432,113.8207629
洋下四路总站,22.74233742,113.8335594
洪田社区总站,22.7080618,113.8494162
同泰时代中心总站,22.68091108,113.7981926
跨越速运,22.68291963,113.7761113
沙四科技园总站,22.74833221,113.7852389
国威路东,22.56693389,114.1748505
仙桐御景,22.56777294,114.1733143
畔山支路,22.5659276,114.1725062
畔山路,22.56632339,114.1708187
六约麻地新村,22.63848976,114.1869897
鹭湖居委会,22.69559962,114.061079
招商观园,22.69248365,114.0588651
坪东村,22.77121853,114.3115124
长兴科技园,22.72050504,113.9206481
罗湖交警大队,22.54867681,114.123408
深圳中学,22.55690727,114.1158846
工青妇活动中心,22.55222068,114.2316417
新和天桥①,22.66905567,113.8022674
怡亚通,22.65244846,114.1266698
立新湖,22.6883896,113.8114548
水田第四工业区微巴场站,22.69990627,113.9547981
盐田海事局,22.56474992,114.2467239
呈祥花园,22.66373918,114.0754184
平湖火车站候车室,22.69543383,114.1199288
新南大岭,22.68853876,114.1459916
仙湖山庄,22.57174513,114.1683135
互联网产业园北,22.56820922,114.1671145
工业D小区,22.56778021,114.1655022
鹏兴实验学校南,22.56543144,114.1628521
宏发世纪城,22.6825853,113.9420449
领航城,22.61574608,113.8523932
峰荟花园首末站,22.76663038,113.8928425
光明大道换乘站①,22.75621404,113.9317722
青兰二路北,22.72423118,114.3946998
青兰二路南,22.71988438,114.3948131
坑梓公交总站,22.76350445,114.4125255
汤坑社康中心,22.67178461,114.2970611
沙河路,22.5773818,113.9468615
深圳实验学校,22.58870698,113.9390498
渔农村,22.51922405,114.0666728
二十二米大道中,22.57647701,114.2571266
科苑南路口,22.52996014,113.9421405
梧桐山总站,22.59583476,114.1859568
草埔吓屋村,22.58816278,114.1155931
西乡三围码头总站,22.60864174,113.8266375
莲塘总站,22.56671728,114.1707815
德兴花园总站,22.59277809,114.1038538
横岗总站,22.65030667,114.2104552
布吉慢城总站,22.62257452,114.121259
建设路总站,22.54101372,114.1114826
牛栏前总站,22.63867136,114.0346567
南山中心区总站,22.52324211,113.932715
白石龙总站,22.60625891,114.0350022
时尚创意城总站,22.69888396,113.9790933
万国食品城总站,22.65420462,114.12384
大福工业区,22.66283271,114.2302481
水祖坑,22.69707121,114.4263714
洪田火山公园,22.71140107,113.8552938
新安地铁公交接驳站,22.54976619,113.8906001
凤尾总站,22.71078701,113.8152895
沙井乐安居总站,22.64533162,113.818771
庄村横岗下,22.72934168,113.8591473
裕安西公交总站,22.55929043,113.8648651
坪山土地监察局,22.71126351,114.3557215
兰竹荔景路口,22.71348222,114.3633716
兰竹南布路口,22.71058862,114.351888
前海湾花园,22.51329178,113.8815426
育才四小,22.49872491,113.9319004
海月地铁站②,22.50312,113.9318202
海月地铁站,22.50401823,113.932946
湾厦地铁站,22.4979356,113.933369
南岭花园总站,22.60643992,114.1381676
东角头总站,22.48728219,113.9336074
仙湖植物园总站,22.57044114,114.1629551
牛成村总站,22.61866975,113.9231133
宝安机场总站,22.64566417,113.8185664
月亮湾综合车场,22.49598866,113.8715247
向南路,22.51124191,113.9159508
光明圳美总站,22.786913,113.9450759
罗田水厂,22.80142712,113.8656082
固戍地铁公交接驳站,22.60995713,113.8382944
潭头公交总站,22.75255372,113.8479698
潭头西公交总站,22.74770858,113.8394847
田洋六路,22.75868382,113.8724838
新发工业区,22.7285226,113.8521845
泰丰工业园,22.70940164,113.791042
福凤路公交总站,22.68588013,113.8415881
万福广场东,22.67296931,113.8200827
牛角龙居民小组,22.68195032,114.3296358
震雄集团,22.75107472,114.3863098
震雄工业园②,22.75688361,114.3896066
华加日西林,22.73822227,114.3774707
村田厂,22.72804707,114.3789308
皇庭港湾,22.49483519,113.9366087
阳光海滨,22.49344157,113.93639
海怡湾,22.48998839,113.9376228
绿海湾,22.49628412,113.9348905
石洲北路,22.53836268,113.9610213
平湖总站,22.68861364,114.1160333
五区市场总站,22.56722151,113.8948468
龙华新区大道总站,22.62675891,114.0122121
赤湾地铁站总站,22.48175968,113.8933079
潜龙花园总站,22.61641764,114.0353049
港大医院总站,22.52827139,113.9890375
青湖山庄总站,22.59065728,114.1012088
深业花园公交总站,22.54965297,114.0608877
盐田区福利中心,22.55540303,114.2148034
新平村总站,22.59868105,114.1678566
清水河酒店用品城,22.58301931,114.1076192
溪头,22.77463001,113.8312392
松岗新汽车站,22.77346084,113.8472146
清湖地铁接驳站,22.66820917,114.0318741
东周总站,22.76632768,113.9337705
光明交警大队,22.73784009,113.9018125
光明光晟厂总站,22.78290487,113.94579
上村总站,22.79155564,113.8876817
石岩黄峰岭总站,22.67168278,113.9330503
园岭村总站,22.69649169,113.9373281
油麻岗总站,22.74264093,113.8867647
西田第三工业区,22.81107512,113.9020369
长圳恒泰裕工业园,22.72236195,113.9284242
坪山二小,22.69148464,114.3713189
罗芳新秀路口,22.54959949,114.1426872
田贝总站,22.56240154,114.1224081
汇鑫花园,22.54509956,114.1308006
深圳中学泥岗校区北,22.57017431,114.090263
金湖大厦,22.57091972,114.0875865
市卫生监督局,22.56133938,114.1212911
老屋村,22.69506768,114.3837797
富士锦园,22.76015052,114.4003421
坪山实验学校,22.70766937,114.338499
渔民村总站,22.53632154,114.1079477
海吉星农贸市场,22.64714592,114.1550028
石岩湖总站,22.71144186,113.9042252
金色半山,22.6344053,114.0809824
松湖公寓场站,22.48058281,113.8995596
麻磡总站,22.63765109,113.9486458
大田洋公交总站,22.75026733,113.8627496
文锦渡客运站总站,22.54206224,114.1242341
潭头西综合场站,22.74625603,113.8345238
881良安田主站,22.66529401,114.144763
南头停车场,22.55438162,113.9067849
松岗塘下涌综合场站,22.81055725,113.8437275
石岩湖度假村,22.70679517,113.8987968
长圳锐丰检测站停车场,22.7170111,113.9049731
海语西湾,22.55882162,113.8626095
下石家路口,22.76928485,113.8953944
光明峰荟,22.76861756,113.8919285
伟林雅苑,22.76820454,113.8702692
伍屋村,22.65720085,114.0388689
长圳锐丰检测站停车位2,22.71664525,113.9048241
根竹园调度点,22.76918182,113.8689567
光明东周总站,22.76677346,113.9325687
楼村场站1,22.78316541,113.934233
南头场站,22.5526457,113.9042893
黄蜂岭场站,22.6716747,113.9330993
836等线海吉星副站,22.64804059,114.154372
M272慢城主站,22.6236402,114.1220294
839车队坪地主站,22.80455564,114.332901
松岗燕罗公交总站,22.77374295,113.854912
M224、M268等线甘坑总站,22.65715699,114.103365
深圳北站交通枢纽公交场站,22.61478946,114.0237184
布吉加洲花园总站,22.59550193,114.131094
民治地铁公交接驳站,22.62021161,114.0358996
红山地铁公交接驳站,22.62490573,114.020459
坪地街道办富坪中路20号坪地汽车站,22.77728991,114.310775
龙悦居三期,22.60417345,114.028485
龙悦居四期,22.6068595,114.0256438
梅林联检站（入关）⑥,22.59682087,114.045021
梅林联检站（入关）⑦,22.59674289,114.045016
梅林联检站（关内）01,22.59768114,114.0458098
梅林联检站（关内）02,22.59760119,114.0457898
梅林联检站（关内）03,22.59754422,114.0457768
梅林联检站（关内）04,22.59751519,114.0457948
梅林联检站（关内）05,22.59743628,114.0457549
梅林联检站（关内）06,22.59738426,114.0457669
梅林联检站（关内）07,22.59730932,114.0457429
梅林联检站（关内）08,22.59723834,114.0457379
梅林联检站（关内）09,22.59717235,114.0457389
梅林联检站（关内）10,22.59711636,114.0457379
梅林联检站（关内）11,22.59705937,114.0457379
梅林联检站（关外）20,22.5989982,114.0452006
民乐地铁站③,22.59878936,114.0451367
民乐地铁站④,22.59870399,114.04631
梅林联检站（关外）13,22.59891741,114.045594
梅林联检站（关外）14,22.5987068,114.0454163
梅林联检站（关外）15,22.5989597,114.0454462
梅林联检站（关外）16,22.59894397,114.0453154
梅林联检站（关外）17,22.59905507,114.0452585
梅林联检站（关外）18,22.59901025,114.0451776
梅林联检站（关外）19,22.5990474,114.0450987
民乐地铁站②,22.59788219,114.0457698
民乐地铁站①,22.5978962,114.0457628
浪静路中,22.70164412,113.9808348
浪腾路口,22.7033778,113.9797753
龙华法院,22.70098276,113.9793196
龙华检察院,22.70021063,113.9811242
浪宁路中,22.7023142,113.9817645
浪宁路口,22.70326592,113.9821096
石凹路西,22.70250989,113.983194
石凹路中,22.70100525,113.9855432
机场新航站楼,22.62736448,113.8093853
风华大剧院西,22.49989746,113.9188107
南航基地,22.63995858,113.8219208
深航基地,22.63525132,113.8245
保税物流中心,22.62963418,113.8276088
铁岗水库,22.60470608,113.919231
新安中粮锦云总站,22.58638562,113.8834625
横岭,22.61014959,114.0405202
华瀚科技总站,22.56230717,113.9377351
樟坑村总站,22.6184698,114.0326308
大浪宝龙新村总站,22.6784039,114.0148285
石岩影剧院北,22.68387462,113.9332673
坑尾村路口,22.69687515,113.9328189
邮政物流中心,22.62467573,113.8285115
顺丰物流基地,22.62093514,113.8289299
国内货运村,22.6445857,113.8192704
大万世居,22.68258286,114.3372934
福民路口南,22.69361113,114.374358
田心社康中心,22.69582818,114.4156888
百鸽笼总站,22.59569609,114.1312263
吉华坂雪岗路口,22.63865521,114.0602944
深圳东站西广场,22.6040687,114.1133384
大草埔总站,22.70675347,114.1247885
宝鼎威货运,22.63243875,114.1388315
日塑,22.63208296,114.1336875
平湖商会,22.70460601,114.1308895
开田科技园,22.67451803,114.1361484
横岗商业街,22.64843024,114.2029829
宝安客运中心总站,22.59351021,113.8782146
大浪小镇公共平台南,22.70391285,113.9864228
浪奔路中,22.69923085,113.9834884
大浪时尚小镇北,22.70503401,113.9812506
大浪时尚小镇西,22.70360366,113.977414
浪花浪腾路口,22.69932406,113.9786802
浪花路中,22.69853736,113.9810226
梵思诺大厦,22.69744955,113.9860751
振新学校,22.73775967,114.2656249
宝路工业区,22.68498858,113.9221266
彩煌公司①,22.6744863,114.0525519
新城联检站Ⅲ1,22.55074001,113.8973207
创景路口,22.71221023,114.3908506
华联大厦,22.54335864,114.0894703
东坑村路口,22.73313688,114.3624811
永盛泰工业园,22.76008024,114.3584603
南源新村,22.62617856,114.0241028
水榭春天,22.62883398,114.023038
民顺小学,22.63140993,114.0214274
民塘人民路口,22.6351498,114.0165942
隔圳新村西,22.63874952,114.0116157
简上路口北,22.64093866,114.0100654
和平里花园二期,22.64429291,114.0077369
象山大道燕罗路口,22.80046652,113.8741139
民乐地铁站⑤,22.59667968,114.0451219
南科大附属中学,22.69910337,113.8078417
万乐锦程路口,22.72875518,113.7799895
雅达电子,22.70629143,113.7910232
机场东地铁站西,22.64915938,113.8169118
怀德建材街,22.66963318,113.813747
名人假期,22.67967323,113.8166
环观南路路口,22.69053856,114.0627531
华润三九,22.68827574,114.0538804
日海通讯正门,22.68834644,114.0655883
瀚宇药业集团,22.70256992,113.7851266
和泰工业区,22.69428205,113.7844096
机场东地铁口,22.64995303,113.816276
科陆工业园,22.68640924,114.2821924
同乐汽车站,22.72339085,114.2937927
锦龙名苑,22.7159547,114.2644825
兴泰实验学校,22.73359789,114.2453064
银湖汽车站②,22.57147383,114.0839421
龙悦居总站,22.60434952,114.0250233
宝安区青少年宫,22.54932152,113.8767732
宝安图书馆①,22.55276994,113.8776113
聚龙山南路,22.74485509,114.3955878
深业东城御园,22.74064556,114.3937174
坪山外国语学校,22.73271636,114.3794183
西田公园,22.80690015,113.8979009
城德轩科技园,22.81031259,113.8844486
屋园路口,22.81046446,113.8924994
宝安图书馆西,22.55209931,113.876767
新彩隧道口,22.59539172,114.0442173
雪岗路口北,22.66884948,114.0561323
金光道人行天桥,22.67325504,114.0596387
科技园公交总站,22.53900144,113.9471365
香梅北总站,22.56096175,114.0604024
黄埔雅苑公交总站,22.54573755,114.0467448
九州家园二期,22.72909462,114.2566008
深圳实验光明部,22.75183555,113.9329483
光明信访局,22.75272499,113.9318543
不动产布吉登记所,22.60996161,114.121344
火车站,22.53511024,114.1141732
蛇口沃尔玛①,22.50560517,113.9180076
科技北三路,22.56056209,113.9373037
草埔大修厂,22.58820131,114.1150762
大梅沙公交总站,22.60590251,114.2984686
上梅林公交总站,22.57115259,114.0536104
西乡后瑞总站,22.63893768,113.8325133
世界之窗地铁公交接驳站,22.53985782,113.9698951
购物公园地铁公交接驳站,22.53749882,114.0483991
农科中心公交总站,22.54306571,114.0150228
西乡后瑞场站,22.63915502,113.8327138
科学馆地铁公交接驳站,22.54276747,114.0911643
111,22.55335845,114.0326999
西乡恒生医院,22.57811966,113.8471539
沙头角公交总站,22.56050603,114.2408482
福中福总站,22.5664338,113.8701167
水库总站,22.56950747,114.138174
购物公园总站,22.53801087,114.0478428
蛇口总站,22.48069093,113.8981477
三岛中心总站,22.54017098,114.111755
桃花源松岗分园总站,22.74614364,113.8576549
下石家总站,22.77026423,113.8929213
李松蓢公交总站,22.81034844,113.882449
深圳北汽车站,22.61061731,114.0210785
坪山新区碧岭村公交总站,22.66776223,114.2978295
南山中心区公交总站,22.52350889,113.9328479
新安67区安顺达场站,22.57833749,113.9147018
清水河总站,22.58225841,114.1015307
东昌总站,22.5790179,114.131065
南头总站,22.54573013,113.9090789
香蜜湖总站,22.54261547,114.0233469
世界之窗总站,22.54051959,113.972104
桃源村总站,22.56311699,113.9752213
银湖总站,22.57219677,114.0839061
宁水花园总站,22.56505402,114.1395105
北斗总站,22.54351098,114.1303016
鹿丹村总站,22.53766863,114.0995065
草埔总站,22.58530394,114.1118102
布心总站,22.57570901,114.1382898
动物园总站,22.59840891,113.9605994
牛山光源五路口,22.74755192,113.9376554
新城公园西门,22.74852453,113.9342042
研祥西门,22.76182557,113.9198927
新安72区安利达场站,22.58903752,113.9178464
固戍村总站,22.59769632,113.8357826
福田交通枢纽公交场站,22.53507545,114.006078
东方尊峪公交总站,22.56021198,114.1844251
潭头村公交总站,22.7503248,113.8458156
新桥上南公交场站,22.71679485,113.8484292
新安六路公交总站,22.56699289,113.8712157
光明总站,22.76764646,113.9440506
笋岗百安居,22.5728796,114.106203
宝安客运中心,22.59293543,113.878407
西乡公交总站,22.57950196,113.8577498
布吉慢城,22.62141576,114.1203845
东湖客运站,22.57167324,114.1368788
固戍公交接驳站,22.61006726,113.8383766
赤湾凯丰码头,22.46812745,113.8785941
万科五园公交总站,22.61474944,114.0616059
银龙汽配城总站,22.59712089,114.1217436
长岭总站,22.55676217,114.1821294
山湖居总站,22.5856323,114.1346416
金洲花园总站,22.58986229,114.128626
研祥北门,22.76107463,113.9219199
光明公共服务平台,22.74803083,113.9398187
深圳北站,22.6137223,114.0242094
南山智园北,22.59934436,114.002059
布吉联检站,22.58753184,114.1107094
民治公交停车场,22.62009332,114.024197
侨城东总站,22.54385776,113.9968637
布吉街道办场站,22.60870599,114.1223981
平湖任屋村总站,22.68716097,114.1137526
强荣东总站,22.63746946,113.8629563
南头火车西站,22.53003048,113.9029802
高新西公交总站,22.54708015,113.931212
石岩综合场站,22.66951249,113.9259754
月亮湾,22.51199013,113.885674
罗田路公交总站,22.55474063,113.8663874
燕川村公交总站,22.81181231,113.8593384
百鸽笼公交接驳站,22.59940282,114.1253416
动物园夜间停车场,22.59744904,113.9602082
南山智园,22.59645343,114.0008442
留仙学苑路口,22.59903637,114.0030664
深圳市宝馨颐养院,22.64226309,113.8325291
中山园场站,22.56241347,113.9197774
下沙车队小梅沙夜间停车场,22.60450974,114.3214442
南联地铁公交接驳站,22.72592436,114.2624151
盐田北公交总站,22.60023329,114.2358603
大梅沙场站,22.59742746,114.2980097
都市名园,22.54119804,114.1058646
大澳湾,22.56407539,114.4625113
山海湾,22.56631072,114.4607667
云海山庄,22.56158686,114.4629929
油草棚,22.5693242,114.4641682
下沙社区,22.57374958,114.4514317
南澳办事处,22.55132264,114.4785643
福荣上下沙路口,22.52355188,114.0239259
金域蓝湾,22.52518637,114.0207937
金海湾花园,22.52110931,114.0283387
沙嘴,22.52158206,114.0295971
益田花园西①,22.51632163,114.0505686
中海华庭,22.53524474,114.0495557
益田中路,22.53426964,114.0512506
皇岗村北,22.53133704,114.0563301
会展中心,22.53520421,114.0537166
购物公园地铁站,22.53745951,114.0501418
中国银行大厦,22.54319032,114.1111379
深圳发展中心大厦,22.54097339,114.1135688
国贸,22.54368119,114.1135406
国贸①,22.54337025,114.1135917
罗湖医院,22.54001435,114.1178341
金光华广场,22.54264319,114.1146265
中国农科院深圳基因组所,22.57567048,114.4826961
水头村,22.56535844,114.4894014
水头市场,22.56929138,114.4891754
南坑埔小区,22.57333225,114.484906
上沙村,22.52739108,114.0302864
金地花园,22.52511136,114.0318025
下沙②,22.53165544,114.0199412
泰然九路,22.53358268,114.0198213
大工业区社康中心,22.70412822,114.3599944
南布路口,22.70591992,114.3591591
坪山区委区政府,22.70819928,114.3464041
坪山行政服务大厅,22.70668317,114.3624988
启兴生活区,22.70735463,114.3627705
龙田派出所,22.70689455,114.364489
萨米医疗中心,22.70859174,114.3728269
新中桥工业园,22.69120096,114.2994969
金碧新屋路口,22.68113646,114.3063045
宝龙生活区,22.68952713,114.304811
同心工业园,22.72273925,114.3093236
新布村路口,22.72330208,114.31042
新意物流大厦,22.73365355,114.2965059
沙背坜路口,22.73481117,114.2965308
兰一居民小组,22.73406138,114.3001194
兰水坣,22.73354489,114.3028009
大工业区体育中心,22.71618428,114.3487006
坪山丹梓大道路口,22.71836368,114.3499229
新南天家具,22.72363842,114.3561901
石井市场,22.69068078,114.3755376
石井社区,22.69375435,114.376305
欧姆龙,22.68307765,114.3820428
宝龙派出所,22.69169399,114.3057067
宝龙五路路口,22.6939458,114.2967921
方正微电子,22.69565198,114.3011795
老大坑,22.69865146,114.3055914
南同大道路口,22.69759801,114.3020332
恒森家具,22.72589118,114.3105097
吓坑A区,22.73000781,114.3111585
吓坑B区,22.73218079,114.3102916
池屋新村,22.73291573,114.3074796
松子坑,22.72357206,114.3512639
三角楼,22.73641949,114.3499567
盘古石,22.72771218,114.3523363
龙田街道办,22.72958058,114.3543099
坪山海关,22.72761567,114.3615723
石井街道办,22.68826135,114.3779387
横塘村,22.69784699,114.3806022
横塘路中,22.70131313,114.380568
龙岗坑尾村,22.70169651,114.2957698
景园公寓,22.69346915,114.3092366
多利高新科技园,22.6971817,114.3111406
新布村,22.72336253,114.319199
九九同心工业区,22.7255003,114.3153187
盘龙世居,22.7307833,114.3583024
坪山区群团活动中心,22.73164555,114.3532949
坪地文化宫,22.76544596,114.2964309
黄竹村,22.76114527,114.3018005
咸水湖,22.69455757,114.3885025
罗庚丘居民小组,22.71206585,114.3708279
绿基厂,22.71502573,114.3692657
大坑路口,22.70205168,114.3032823
龙岗救助站,22.70105569,114.3073398
鸿源工业区,22.70307435,114.3083413
新布工业区,22.72617981,114.3175853
万顺百货,22.73452094,114.3130704
吓坑第二工业区,22.73412768,114.312739
浪背市场,22.73497156,114.3190215
坪地中学,22.76905443,114.2990575
坪地中学东,22.76954807,114.2979878
中心幼儿园,22.7710279,114.2953618
怡心广场,22.77115175,114.2972665
坪洲百货,22.7722163,114.3020394
石灰围,22.76275113,114.3044379
沃尔核材,22.72239614,114.3758904
坑梓高速路口,22.73341217,114.3696293
西坑居民小组,22.73488546,114.3639497
秀山新村,22.73771786,114.3661926
坑梓中心小学,22.73919579,114.3658888
谢屋村,22.67910395,114.3149592
新龙路口,22.68454265,114.3202309
碧岭派出所,22.6845041,114.3205235
沙湖市场,22.67701897,114.3162624
沙湖社区,22.67607017,114.3162674
同乐第六工业区,22.73720584,114.3227178
浪背总站,22.73857347,114.3227027
深业东城国际,22.6814646,114.3248222
坪山城市候机楼,22.6825102,114.3280472
舒美实业,22.76850849,114.3043236
坑梓路口,22.77222301,114.303914
坪东路口,22.77152077,114.3053011
泰和路口,22.76609495,114.3083822
泰和花园,22.76674383,114.3105111
坪东学校,22.76815789,114.3107716
齐心科技园,22.72919929,114.3725967
坑梓中心幼儿园,22.73474283,114.3695832
井水龙居民小组,22.73849443,114.3689474
连展科技公司,22.71623813,114.3792404
上榨居民小组,22.67669259,114.3180797
创意厂,22.68333137,114.3179065
沙湖路口,22.68335798,114.3111974
新基德生活区,22.69123296,114.3112609
中集集团,22.67557467,114.3276023
黄沙坑,22.68023867,114.3349859
竹园村,22.67808024,114.3521997
坪山大道同富支路口,22.68695114,114.3338751
深业东城上邸,22.68469519,114.3314749
坪东社区,22.77039213,114.3075241
四方埔路口,22.76413989,114.3152054
四方埔社康中心,22.76304375,114.3165185
沙梨园,22.7088409,114.3809514
竹坑第一工业区,22.71334645,114.381312
连展厂,22.71492809,114.3827756
坪山澳子头村,22.68552827,114.3155739
金碧锦龙路口,22.6873046,114.3214809
富兴小区,22.67737185,114.320487
倚湖居,22.67724545,114.3243721
六联村路口,22.69093868,114.3357521
曾屋村,22.68018075,114.3432341
坪山公园,22.6896523,114.3383085
坪山第二外国语学校,22.68427438,114.3423281
坪山中学,22.68727258,114.3440795
高喜路电子厂,22.76841869,114.31458
凯业丰泰科技园,22.76667277,114.3185302
富地岗,22.77119411,114.3170592
牛眠岭村桥头,22.75931066,114.3224318
惠盐高速路口,22.76930654,114.3197802
青排村,22.75298627,114.3915031
薛屋新村,22.7529359,114.3933205
金沙文化广场,22.75694374,114.3928501
威万年自行车,22.75294787,114.3935036
龙山路口,22.7533845,114.3953891
金田学校,22.75458707,114.3963934
红树林,22.52740157,113.9949207
学府中学,22.51919362,113.9298419
园博园②,22.53514634,113.9965161
园博园①,22.53532179,113.9976802
侨城东路口,22.54407576,113.9932399
东方雅苑,22.52654949,114.0515387
皇岗村,22.5258925,114.0538101
时代财富大厦,22.53553248,114.0597796
福田村岗边坊,22.53636372,114.0797036
莲花村地铁站,22.55529802,114.0626989
福田水围村,22.51972751,114.0588934
滨江新村②,22.53805817,114.0977107
滨江新村①,22.53807937,114.0985926
滨河华强天桥,22.53754885,114.0831981
红岭南路①,22.53992256,114.0997306
坪山大道金沙路口,22.75774756,114.392488
坑梓派出所治安大队,22.7577681,114.395867
沙田社区,22.76128598,114.3961359
下廖居民小组,22.76661825,114.397224
沙田路口,22.75855094,114.3948566
沙田收费站,22.76451674,114.4119568
深圳人才园,22.53601554,114.0017089
东海花园,22.54065247,114.0179681
竹子林②,22.53640459,114.0070136
竹子林①,22.53654321,114.0078107
农林地铁站,22.54361827,114.0120549
深圳风湿病医院,22.53962167,114.0140703
福强路口,22.52254186,114.0606157
福田保健院,22.52581843,114.0568639
福民地铁站,22.52500874,114.0599491
鹿丹村,22.53844791,114.1032155
埔尾路,22.54115211,114.0982751
红岭南路②,22.5422394,114.0996914
骨科医院,22.54113473,114.1005273
大鹏下沙村,22.5719259,114.4449744
金沙湾,22.57471247,114.4544623
下叠福路口,22.59049475,114.4375882
咸头岭遗址,22.58963643,114.4390296
官湖村口,22.60669513,114.4261839
上叠福路口,22.59414777,114.4461741
深航大厦②,22.53778808,114.0153564
深航大厦①,22.53778907,114.0153574
高级中学南校区,22.54199311,114.0124879
东海实验小学,22.54355256,114.0140211
福田党校,22.57455849,114.0610629
岗厦村,22.53603965,114.0632038
福民公安小区,22.52196406,114.0619097
彩福大厦,22.53882192,114.0628849
福民新村,22.52501533,114.0630946
会展中心南,22.53125867,114.0524324
人民南地铁站,22.53756478,114.1137944
蔡屋围新七坊,22.54043895,114.1035678
深圳书城,22.54414761,114.1033393
荔都瑞峰路口,22.79072511,113.9295419
鲤鱼河工业区,22.79574381,113.9338166
深圳人才园②,22.53592047,114.0043882
上海宾馆西①,22.54335826,114.0754103
国贸②,22.54347225,114.1135947
益田花园西②,22.51652537,114.0507084
红树绿洲,22.51227759,114.0464974
石岩第二工业区,22.68848753,113.9278908
劳务工博物馆,22.68670144,113.9267937
盐田海鲜街路口③,22.58967017,114.2670199
草埔②,22.5862123,114.1124131
易瑞生物,22.60571755,113.886387
竹坑黄泥园,22.71178793,114.3812181
港龙,22.69233024,114.098113
协力工业园,22.68538807,114.3668594
辅城坳村委,22.69842933,114.0901055
民乐地铁站,22.59627705,114.0459467
坑梓大窝总站,22.75823908,114.3666389
诺菲巴斯德厂,22.7444482,114.3957729
长金路口,22.67524508,114.2256893
飞黄达科技园,22.79743821,113.9362129
彤创科技园,22.79865094,113.9394819
新陂头村,22.80612455,113.9371433
上海宾馆西②,22.5433417,114.0748683
上步南天桥①,22.53816869,114.0936463
福滨新村西,22.53342876,114.0720316
喜年中心,22.53689432,114.0191686
华发大厦①,22.54925428,114.085263
大板桥,22.53122935,113.91179
民田路中,22.54045383,114.0477927
宝安中心站,22.55833944,113.881728
联合工业区,22.69730083,114.2835066
嶂背总站,22.68152121,114.2337379
中海康城国际东,22.71180032,114.2035992
吉厦总站,22.62869057,114.1599883
北岗总站,22.81775297,113.9475571
光明滑草场,22.76028328,113.9579682
上村莲塘,22.8029447,113.903251
楼村公交总站,22.7844365,113.9300459
东发东进路口,22.75517212,113.9184117
九祥岭②,22.58740522,113.9498111
深云村,22.55851823,113.9887733
红岭北地铁站,22.56372661,114.0992526
TCL国际E城,22.5714618,113.9256908
凤凰台湾街,22.6885058,113.8389401
万科翡丽郡,22.73640992,113.8077039
奥创动力,22.72857429,113.8072101
上下围工业区,22.74808625,113.7907899
竞华电子,22.73426214,113.7932615
和一社康中心,22.71369899,113.7788533
861总站,22.70084325,114.3177956
红花岭工业区,22.76037042,114.2406284
爱联嶂背村,22.67878428,114.2348282
坪地汇源工业区,22.79520007,114.3254309
横坑尾公交总站,22.69657615,114.0683903
龙岗同乐村,22.71710681,114.3104104
清湖村,22.6744502,114.0526178
中梅路公交首末站,22.63086506,114.0228782
大浪宝坤工业区,22.6985702,113.9950064
鹅公岭总站,22.68363242,114.1502589
冼屋村总站,22.71328914,114.0248944
同胜村总站,22.68433355,113.9659985
浪静路口,22.6998653,113.9842874
观澜长途客运站,22.73033287,114.0889618
珠光北路,22.58199609,113.9536368
翠薇园,22.50262727,113.9235794
海昌街,22.48976078,113.9174218
留仙居,22.58626221,113.9432593
和一好万年,22.71876193,113.7791195
蚝二西海岸,22.73481927,113.7806695
锦程民主大道路口,22.73866256,113.7809969
盈利达,22.74994739,113.781963
积架宝威,22.74781961,113.7816225
锦程蚝乡路口,22.7431775,113.781221
深圳东站东广场,22.60522127,114.1164324
田头村总站,22.69439242,114.3926511
布吉西湖新村,22.59469807,114.1303975
回龙埔工业区,22.73348948,114.221293
比亚迪公司,22.64131408,114.4243985
文博宫,22.60526813,114.0966113
德琳学校,22.77940064,114.3116207
香林世纪华府,22.76523885,114.2747425
伍屋围村,22.69803201,114.1311114
群星广场始发站②,22.55160892,114.0831722
群星广场,22.55160701,114.0829682
海外装饰大厦③,22.54844634,114.0761509
华富路③,22.54603946,114.076213
华富路④,22.54432757,114.0762251
留仙洞地铁站,22.58376097,113.9414949
深职院西丽湖校区西门,22.58839487,113.9457455
沙头路口,22.72180945,113.7999001
鸿桥工业园,22.72193433,113.7767789
金沙名都,22.72112378,113.7957321
马安山股份合作公司,22.71788152,113.8073431
万丰派出所,22.71377204,113.8194604
海吉星路口,22.64886963,114.1466378
横东岭村口,22.65153506,114.1517088
海吉星物流园,22.64838648,114.1543529
长山工业区,22.80596696,114.3235231
将石同富裕,22.75881607,113.8896599
旭景佳园总站,22.62284794,114.0663892
赖屋村,22.67337347,113.9893354
新斜山社区公园,22.72944094,114.0075648
民治地铁站,22.62104078,114.0357728
玫瑰园,22.50188736,113.9198962
四海小区,22.50245929,113.9209068
半岛花园北,22.50289186,113.9292255
新秀地铁站,22.5505293,114.1444065
黄贝岭地铁站②,22.5489489,114.1326425
和一鸿江工业园,22.71055185,113.7797072
欧达可,22.71027144,113.7890415
蚝三丰泽园,22.7469391,113.7968471
红星工业区,22.76787388,113.8230937
隆平路口,22.64992092,114.0534804
大窝佳宝工业园,22.76645993,114.3638347
五和大道吉华路口,22.63753217,114.0553202
南联第五工业区,22.71110137,114.2591332
南联学校南,22.71118584,114.263276
龙南路口,22.71049861,114.2785806
利好国际创新中心,22.71205058,114.2830561
合泰御景翠峰,22.55611464,114.2163942
径口村,22.55557,114.21573
沙头角社康,22.55882976,114.2177293
盐港中学,22.58830847,114.2627728
中康公园,22.57106285,114.0528982
龙华第二实验学校,22.64577774,114.0287488
星际家园,22.76862171,113.8289655
罗田市场,22.79888264,113.8687534
沙四第三工业区,22.75167039,113.7985048
福田农批市场总站,22.56455498,114.0329098
曦城路口,22.588699,113.9045451
坂兴路口,22.64294916,114.0547225
华为软件中心,22.64736596,114.0537503
稼先路口,22.65515126,114.052681
威尔德电子厂,22.7252189,114.3946747
富业商品批发城,22.72968649,114.2861492
黄竹坑村,22.67329186,114.3114457
金源第三小区,22.68142409,114.2236179
源盛村东,22.71737092,114.2868683
大埔,22.7221356,114.288953
赤石岗小区东,22.72609671,114.2914681
龙新社区工作站,22.73527767,114.297961
海上世界地铁站,22.48865006,113.9104366
上塘派出所南,22.64886802,114.0111213
牛湖派出所,22.72515016,114.0738566
宏发工业区,22.6671866,113.9122394
鸿景园,22.57769717,113.8844554
翻身实验西校区西,22.70679847,113.7911414
火车站337总站,22.53718843,114.1121148
梅山苑,22.56715835,114.0314535
马山头,22.77700403,113.8783071
马山头第四工业区,22.77572275,113.875051
鸿华玩具厂,22.77569583,113.8751312
公明西环路口,22.78792719,113.8659637
公明汽车站东,22.77843914,113.8879328
宝丰商场,22.67838666,114.2276167
百事可乐,22.67818957,114.2290085
五丰,22.67931975,114.2316407
李中村总站,22.77522947,114.3981119
雷柏厂,22.74343906,114.3919928
水湾地铁站,22.4915717,113.9152082
荣超花园④,22.59559282,114.1107229
高新园地铁站,22.5422211,113.9490492
星光之约②,22.61114421,114.0549613
创维天桥,22.64808752,113.9173138
海上世界南,22.48507035,113.9129828
中心书城北,22.55135176,114.0545367
月亮湾花园东,22.49670371,113.886493
锦绣中华①,22.53634543,113.9865722
上梅林总站,22.57115548,114.053103
何香凝美术馆②,22.53737823,113.9754514
海月地铁站①,22.50205739,113.9328552
高新奇工业区,22.57612816,113.9165746
深云村总站,22.55637818,113.9861959
深大沧海宿舍楼,22.53380596,113.9378628
佳得宝,22.75023987,114.2780264
宝龙比亚迪,22.68330474,114.2728747
水蓝湾,22.72982327,114.2157881
大浪新围村总站,22.69615551,113.988517
坪山充电站,22.68885276,114.3354427
竹坑总站,22.71369794,114.3978177
新生总站,22.74932463,114.266365
碧岭社区,22.66860112,114.2747846
坪地同兴厂,22.78521271,114.2842873
坪山昌红,22.66821135,114.3265374
宝华油站,22.64190343,113.9215726
乌料龙,22.76501159,114.2768623
东门⑤,22.55186137,114.1176651
沙头角地铁站,22.55710789,114.2167147
永安北三街路口,22.60021076,114.242571
深圳软件园西,22.54844525,113.9336405
长岭陂地铁站,22.60190444,114.0062403
塘朗地铁站,22.59306119,113.9944826
深圳人才园①,22.53592735,114.0044281
红树湾地铁站,22.52802491,113.9630618
沙河东公交总站,22.52828142,113.9628652
瑞河耶纳南门,22.52825331,113.9713675
东晓街道办③,22.58377965,114.1137013
澳美厂,22.69535823,114.252261
横岗西坑村,22.62253873,114.218771
名人居家具厂,22.75797531,114.4049394
坑梓公交基地,22.76375658,114.4096343
同富裕工业区,22.75466728,114.3610851
六约地铁公交接驳站,22.63817839,114.176756
万科总站,22.70554018,114.3416956
赤坳总站,22.66470546,114.3608501
宝龙总站,22.70378096,114.3122406
宝龙站,22.70131014,114.3172663
楼村市场,22.78560113,113.9214616
楼村新村,22.7875914,113.922409
晶像通厂,22.78936573,113.9265393
梧桐山综合大楼,22.59599655,114.1858525
大望桥,22.6056822,114.1631584
大望新平村,22.59968735,114.169143
上梅林地铁站,22.57373256,114.0540577
M286总站,22.72818379,114.0077364
横岗地铁站①,22.65081395,114.2038256
横岗地铁站②,22.6510423,114.2041102
汇聚创新园,22.58469778,113.9228766
简龙村委,22.66638954,114.2399198
海外装饰大厦①,22.54797548,114.0760189
招商银行大厦③,22.53861433,114.0170005
八卦二路,22.56150099,114.0940391
八卦六街,22.56240392,114.0917134
华富路始发站②,22.5466154,114.076251
华富路始发站④,22.54773539,114.0761599
华富路始发站③,22.54740141,114.0761629
华富路始发站⑨,22.54887932,114.0761398
华富路始发站⑥,22.54852034,114.0761488
华富路始发站⑤,22.54797437,114.0761569
华富路始发站①,22.54582248,114.076216
望海东滨路口,22.5060209,113.9470278
观湖工商联,22.7022026,114.0419079
园兴酒店,22.7050625,114.0420745
新石桥村,22.73357657,114.0595438
精科模具,22.75739907,113.8694323
东方立业路口,22.76334219,113.8503339
松岗综合执法队,22.76707059,113.863948
联投东方,22.76264743,113.8535365
深莞电子城,22.76401129,113.8480673
龙岗高级中学,22.64018361,114.1765353
龙园公园,22.73518806,114.2633634
珠光村②,22.57556876,113.9532309
泥岗村②,22.56803439,114.0918061
公明将石红太阳站,22.76767041,113.912006
昂纳集团,22.72152996,114.3816854
横岗长途汽车站,22.6764779,114.2208079
钓鱼场俱乐部,22.62029129,114.0710522
东海工业区,22.65373837,114.2408423
深业御园,22.73763204,114.3857347
新陂头工业园,22.81089733,113.9333012
鑫博盛科技园,22.79376516,113.9334062
聚龙山公园,22.72529673,114.3876305
资本市场学院东,22.60046464,113.9644303
翠海花园②,22.55225227,114.0087872
南海意库,22.48922876,113.9138425
一号闸门,22.4976728,113.8688247
上步南,22.53965365,114.0914407
朗山路西,22.55970949,113.9303349
汇金家园,22.5511489,113.9229797
艺园深南立交,22.54353714,113.9223655
同乐村,22.5683727,113.916861
太安路东,22.57158362,114.1371203
世界之窗地铁接驳站,22.54031096,113.9683865
草埔地铁站,22.58544703,114.1119514
喜德盛碳纤,22.72224183,113.8798339
恒海工业园,22.7401356,113.9008829
鼎丰科技园,22.73153617,113.8445186
东门②,22.55001247,114.1165863
奔达康,22.73709985,114.3759804
深南北环立交（关内）07,22.55372398,113.9060327
宝安实验学校①,22.55142096,113.8967233
宝安实验学校②,22.55136696,113.8967833
宝安实验学校③,22.55116798,113.8969885
民主新村,22.73639131,113.7710771
新安中学高中部南,22.55490106,113.8723194
龙东汽车站,22.72847129,114.280523
吉华街道办,22.6536532,114.1080092
龙岗中学,22.7380708,114.2678403
华南城交易中心,22.68203693,114.1225005
沙湾汽车站②,22.61374765,114.1576379
国土局,22.70317211,114.1306971
丹平人行天桥,22.63153098,114.1517893
荣超花园⑤,22.59525774,114.1105486
坂田路口,22.6431201,114.0547364
深惠交界处,22.80531984,114.3263189
黄埔旧村,22.71981946,113.8427769
横岗下工业区,22.72951959,113.8584047
湾厦下工业园,22.76788762,113.7992997
大鹏新区管委会,22.64186146,114.4135676
奔康工业区,22.64121328,114.4200785
永和路中,22.68357761,113.7879739
龙光地产大厦,22.54981122,113.8803896
宝安实验学校④,22.55054602,113.897655
宝安实验学校⑤,22.55162594,113.8965141
新城联检站Ⅲ2,22.55066901,113.8975159
新城联检站Ⅲ3,22.55057202,113.8976259
新城联检站Ⅲ4,22.55049402,113.897713
新城联检站Ⅲ5,22.55031803,113.897678
新城联检站Ⅲ6,22.55038602,113.8978361
新城联检站Ⅲ7,22.55033602,113.8978921
新城联检站Ⅲ8,22.55016903,113.8980743
新城联检站Ⅲ9,22.55003803,113.8982054
新城联检站Ⅲ10,22.54994403,113.8983004
新城联检站Ⅲ11,22.54984504,113.8982774
长发门诊部,22.63340503,114.0517955
华为b区,22.60700029,114.0535192
西湖塘新村,22.77409151,114.3083008
沙二路口,22.78474713,113.8213981
阳光玫瑰园,22.5047662,113.8908562
欢乐海岸总站,22.52371443,113.9844394
天天乐,22.63896997,114.1837493
德芳路口,22.67101515,113.8128165
下十围路口,22.66047817,113.8206852
龙珠花园①,22.60678398,114.1203283
木棉市场,22.60632816,114.1256006
清湖山庄总站,22.60636522,114.0979845
上水径天桥,22.62151137,114.1049042
华为单身公寓,22.65390146,114.0575069
白鸽湖②,22.69424528,114.0832949
南大富,22.71710294,114.0648459
御溪城,22.77203272,113.8253084
黄埔小学,22.71645682,113.8424553
广田股份,22.81874357,113.8652944
泰德创新科技园,22.69124238,113.7870053
光明城站（总站）,22.73678756,113.9494152
十号路口,22.51111801,113.8834903
月亮湾填海区总站,22.51129852,113.8844345
坪地派出所,22.7732035,114.3057005
永兴电子厂,22.68524272,114.1572252
横岭路,22.6996059,114.1320283
荔园批发市场,22.69606635,114.1302777
侨新花园,22.75757921,113.9452425
汉海达,22.77849612,113.8540747
翡翠阳光名苑,22.77598229,113.8523448
松岗中英文学校,22.77384996,113.8491904
松岗汽车站,22.77311206,113.8466793
望牛亭公园,22.67912052,113.811302
松岗第二小学,22.76412247,113.8551942
车公庙始发站①,22.53548985,114.0193662
车公庙始发站②,22.53568496,114.0193223
环坪教育北路口,22.78674775,114.2915122
粤斯特,22.77225865,114.2822889
香瑞园,22.56354106,113.9846952
香象工业园,22.65413426,113.9162457
金融路口,22.55166595,114.2269088
妈湾发电厂,22.47903192,113.8740291
东宝行政督导处旧址,22.80302077,113.8567663
民治天虹,22.61325511,114.0391863
七星湾路口,22.55676176,114.542394
简上社区公园,22.63984421,114.0042418
部九窝路口,22.64292298,114.0024641
创业花园,22.62142529,114.016204
清湖地铁站（临时站）,22.666141,114.0309211
浪口社区,22.68461076,113.9966112
前进公社,22.76685457,113.855172
葵涌比亚迪路口,22.64166552,114.4135967
永安南城,22.64779913,114.0152924
丽景海景酒店,22.53430933,114.4865914
宝安机场,22.64915054,113.8148573
南头检查站①,22.55451277,113.9064018
瑞万佳商业城,22.67780311,113.787383
福海消防主题公园,22.67767648,113.7800871
松福高速路口,22.67780912,113.7781343
坪山规自局,22.70505417,114.3446236
聚龙花园,22.72513785,114.3818321
葵新社区,22.62341772,114.422201
盐田海鲜街路口②,22.58978798,114.2672329
石岩公学西,22.67794042,113.93485
苑都新村,22.6808794,113.9332205
捷家宝大门,22.6897117,113.9628199
罗租上村,22.67351566,113.932232
牛地埔,22.66218393,114.0095413
马田收费站,22.78217884,113.8588282
赤湾村,22.48186941,113.8823697
松岗派出所临时站,22.77514302,113.827065
塘下涌市场,22.8017068,113.8371922
大埔工业区,22.81755299,113.8543398
沙四上善居,22.75103254,113.802606
燕景综治维稳办,22.80687725,113.8594721
三联路中,22.66199087,114.0185828
富泉新村南,22.66951456,114.0292292
樟坑径路口,22.6933836,114.0716383
庄村路口,22.72623529,113.8454663
沙井金沙市场,22.72567412,113.8020993
机场东地铁站-05,22.65005656,113.8186975
机场东地铁站-06,22.65030415,113.818506
平湖钢材市场,22.67702684,114.1507506
群星广场始发站①,22.55160985,114.0833442
南头检查站②,22.55432591,113.9060897
南头检查站（关内）10,22.55375891,113.9062088
南头检查站（关内）09,22.55377291,113.9061958
南头检查站（关内）03,22.55376799,113.9059967
南头检查站（关内）02,22.5536341,113.9057577
车公庙始发站③,22.53573198,114.0193153
车公庙始发站④,22.53582302,114.0192974
坑梓街道办,22.74667742,114.3668305
奇利田公司,22.66682362,113.9263253
爱群路口,22.68864428,113.9225002
罗租工业区,22.66844825,113.9239527
澳子头社康中心,22.68215563,114.3147493
黄田派出所②,22.63102189,113.8329329
巨基科技园,22.75903948,113.8219281
龙华中心小学,22.66069009,114.0157814
国鸿大厦,22.67107769,114.0359242
海关西丽培训中心,22.63703474,113.9436256
西丽麻磡村总站,22.63730291,113.9478361
温馨路口,22.68153227,113.8205765
航城路口,22.61044097,113.8462717
松元厦地铁站②,22.72299832,114.0604048
桂芳园,22.62180787,114.1383851
水田第四工业区,22.70392683,113.9578351
鑫鑫田工业园,22.73394448,113.7829912
恩斯迈北门,22.6688216,113.908268
民主社区,22.73691234,113.7761278
福兴油站,22.714616,113.8333938
新桥天虹商场,22.72281024,113.8235288
世纪华联百货,22.76744636,113.9041756
黄田派出所,22.6311469,113.832949
银田新村,22.58521008,113.8542014
华丽环岛,22.55518859,114.129912
深圳戏院,22.54785217,114.1113599
东门街道办,22.55108683,114.1137355
晒布路,22.55250797,114.1162606
渔景大厦,22.53754842,114.1094057
大磡二线路中,22.63256781,113.967305
王京坑村口,22.63035836,113.9683458
大磡二村口,22.62421766,113.9739643
大磡工业区,22.62346003,113.9724709
大磡社康中心,22.62167758,113.9702431
永湖地铁站,22.66183365,114.213339
吉祥地铁站②,22.71279419,114.2397827
吉祥地铁站①,22.71290126,114.2403041
龙城广场地铁站①,22.71986336,114.2496485
丹竹头地铁站③,22.62260918,114.1423707
丹竹头地铁站②,22.62233551,114.1425392
盐保北区总站,22.58732791,114.2542774
布吉联检站⑴,22.58690668,114.1103729
布吉联检站⑵,22.58676973,114.110422
布吉联检站⑶,22.58665679,114.1104891
布吉联检站⑷,22.58640988,114.1105682
布吉联检站⑸,22.58629093,114.1106223
布吉联检站⑹,22.58619299,114.1106904
布吉联检站⑺,22.58606104,114.1107335
布吉联检站⑻,22.58592812,114.1108186
布吉联检站⑼,22.5857433,114.111035
布吉联检站⑾,22.58560251,114.1112994
布吉联检站⑽,22.58571045,114.1112273
布吉联检站⑿,22.58598029,114.111065
布吉联检站⒀,22.58610221,114.1109689
布吉联检站⒁,22.58651896,114.1107004
布吉联检站⒂,22.58677601,114.1108156
布吉联检站⒃,22.58693884,114.1106013
华强路口,22.54913462,114.0801728
机场东地铁站,22.64964942,113.8164535
机场东地铁站-01,22.65029651,113.8171012
机场东地铁站-02,22.65037304,113.8184538
机场东地铁站-03,22.65025423,113.8185451
机场东地铁站-04,22.64983501,113.8173168
椰风路口,22.51378713,114.0548558
鹏程一路南,22.54391366,114.0467519
泥岗村北,22.57202696,114.0928515
下沙小学,22.52726508,114.0183581
下沙总站,22.52778981,114.0177375
怡华工业区,22.62463865,113.9770649
华美嘉配送中心,22.6639119,114.1196604
同胜学校,22.6826027,113.9788389
白芒路口,22.63809746,113.9270496
锦鲤农贸市场,22.70544402,114.0431857
水围工业区,22.68575926,113.9920807
香域中央花园,22.55167639,114.0125042
棉山路口,22.49820887,113.8798761
华创达科技园南,22.59986318,113.8299269
宝安行政中心,22.55626014,113.879551
凯旋城,22.55223546,113.8925178
渔业社区,22.56939034,113.8639306
石岩汽车站,22.68599418,113.9247981
官田星城站,22.68365799,113.9430914
莲花北村②,22.56029905,114.0479472
笋岗工艺城,22.56155995,114.1026113
北环香蜜立交,22.55970173,114.0173792
望成大厦,22.67959862,114.0322606
金豪创业园,22.73945461,114.0212607
新澜公司,22.70834494,114.061358
留仙洞地铁站西,22.58370232,113.9369637
上芬小学,22.63904979,114.0135631
水榭山,22.5990052,114.0265593
南贤广场,22.62360578,114.0256796
龙岗天安数码城西,22.72404966,114.2110867
全一电子,22.60541994,113.8361661
布吉东大街,22.61519962,114.1355869
地中海,22.61084797,114.1347082
东大街总站,22.61038479,114.1345398
新田总站,22.70682314,114.090268
横岗街道办,22.64434033,114.193331
福星沃尔玛,22.53475815,114.0762167
福星路口,22.53490332,114.0747199
福安街,22.53939135,114.0743697
潭头新二村门口,22.75447361,113.8356672
宝德科技,22.68933489,114.0566434
国科大医院东院区,22.75464343,113.9410706
光明区政府南,22.74700156,113.9326089
光明区城市展示馆,22.74289624,113.9388103
西田村,22.80029649,113.8968125
西柚里,22.79341273,113.8799655
公明大围幼儿园,22.76572944,113.9055172
楼村路口,22.78159375,113.9148529
文锦渡客运站,22.54256602,114.1240757
御龙居,22.59304362,113.8871587
可园总站,22.60667935,114.1310803
清湖总站,22.67133157,114.0557405
万科中心,22.60185549,114.2994167
万科第五园,22.61859862,114.067251
明兴市场,22.76225121,113.8526625
东方玻璃,22.75908908,113.851943
深澜产业园,22.72104158,114.0217388
外径工业园,22.71900856,114.0237874
核电工业园,22.71640613,114.0227329
观澜天虹东,22.69843046,114.0438312
坪山泰华总站,22.69329392,114.3407877
长丰工业区,22.7602224,113.9139323
田寮邮电所,22.72928287,113.9001011
钧达厂,22.72792438,113.8950288
明发悦庭,22.72839269,113.8915507
红花振明路口,22.77821098,113.8962695
迳口村,22.76775514,113.9652248
美盈森,22.81102219,113.9307836
恒利工业区,22.73495288,114.3183296
丁甲岭老村,22.72341402,114.310434
同乐水流田,22.71244282,114.3033545
金鹏酒店,22.65590837,114.0192158
上水花园,22.62957787,114.1024217
大水坑小学,22.73452812,114.0127787
富士康侧门,22.73475398,114.0020402
硅谷动力清湖园,22.68130358,114.0438652
荔山工业园,22.49441114,113.8874963
大布巷市场,22.72161425,114.0457877
新桥围村工业区,22.75379291,114.3758663
大和总站,22.70243212,114.0474226
天健世纪花园,22.54824498,114.0602563
沙头街道办,22.53132954,114.0374296
迳口村路口,22.76865467,113.9466866
光明街道服务大厅,22.76287378,113.9465611
石介头市场,22.7936857,113.951507
罗芳三岔河,22.54385664,114.1388422
罗谷居民小组,22.69616763,114.4070342
田心总站,22.69713927,114.4264325
新塘村口,22.72397093,114.02204
新塘路口,22.72304694,114.0221338
大富工业区路口,22.72924725,114.0258194
维重厂,22.73725914,114.0801935
广培社区,22.73745994,114.0804575
南兴工业区,22.7336036,114.0765507
蛇口SCT码头总站,22.46691956,113.8902049
学府路中,22.53117108,113.9148877
羌下市场,22.80771093,113.9605221
光明书院,22.81563723,113.9403896
同富裕工业园,22.79328661,113.9493837
李松蓢学校,22.80467262,113.8891454
河堤路口,22.80262017,113.88863
福庄花园,22.78363522,113.86646
根竹园花园,22.77309817,113.8677301
新西路,22.75879177,113.9206146
东周小学南门,22.76083649,113.9337319
燕子岭公园,22.70545293,114.3557977
南澳总站,22.53763665,114.4924389
水蓝湾总站,22.73093152,114.2173247
南隆社区东,22.53832197,114.4928905
坪地刘屋村,22.78627492,114.317157
大水田村,22.74202337,114.0894332
牛湖总站,22.73284195,114.0831243
龙华中学,22.65826847,114.0099775
长源村总站,22.59539699,114.0046826
飞马城,22.51427673,113.918286
登良路口,22.51785786,113.9145776
南园综合大楼,22.51708327,113.9165183
海印长城,22.51963746,113.9263346
光明街道办,22.7663508,113.9420775
坪山大道东纵路口,22.69117896,114.3377412
兰景吉康路口,22.73850395,114.3667611
坳背路口,22.67052127,114.2138053
坳背村,22.67156775,114.208499
宝华百货,22.67116599,114.2086173
东明公寓南,22.76589054,113.9241184
莲塘小学,22.56561379,114.1651674
华悦村,22.67946648,114.0020508
福轩新村,22.67952445,114.0000728
刘屋围,22.68282605,114.0049204
警校龙华分校,22.68505125,114.005008
新生路口,22.74723889,114.2594409
金沙湾旅游区,22.57467364,114.4541082
丰树山,22.63812915,114.4065575
葵涌公园,22.63039107,114.4226833
五联利源手袋厂,22.75077864,114.2163437
大发埔油站,22.63054937,114.0507899
港航路口,22.48299039,113.888385
深圳南山书城,22.52108337,113.925588
机场B楼,22.64696435,113.8161318
三号隧道口,22.51273573,114.0425752
布心小学,22.57731797,114.1357878
锦绣中华②,22.53634689,113.9864186
沃尔玛广场,22.55091606,114.1300095
康乐花园幼儿园,22.65035229,114.1857347
致高厂,22.8076985,113.8530194
松岗惠联百货,22.8032103,113.8622713
燕罗水厂,22.80169243,113.8651232
坪西村天桥,22.75779399,114.2840183
双龙地铁站②,22.73167884,114.2730376
龙胜社区,22.65793128,114.0070307
水贝地铁站,22.57698843,114.1218201
君逸华府①,22.57744716,114.125849
合水口泥围新村,22.79005278,113.8759877
腾邦大厦,22.58150977,114.1064067
龙岗第六人民医院,22.78178963,114.3111941
龙岗税务局,22.72288073,114.2658938
布吉中学,22.61045557,114.1090815
细靓总站,22.61032826,114.0957683
上八约警务室,22.61073145,114.0973587
富地岗新围,22.76838461,114.3204233
深业东岭,22.55134154,114.1358948
大水坑市场,22.73050219,114.0231002
崇文学校,22.77528309,113.8138404
松岗第一小学东,22.7711328,113.8375722
同安药业,22.70255162,113.7905053
五联路口,22.74969566,114.2296318
长江埔工业区,22.67628923,114.226252
力嘉创意文化园,22.64612005,114.1977984
塘坑地铁站,22.64233211,114.1870275
潜龙学校,22.61299642,114.0373245
四联路口,22.65578237,114.1960257
金塘工业区,22.62785558,114.1802058
岭吓花园,22.59506863,114.478405
上早新村,22.65834457,114.004898
浪口村,22.68317483,114.0049662
金星工业区,22.67477766,113.9987155
新围社区公园,22.69267249,113.9940821
四方埔,22.76566712,114.3174639
百顺厂,22.74465091,114.2665442
水岸广场,22.74926524,114.2743717
江子背村,22.7598608,114.2963913
坪西路口,22.75580932,114.2803734
清风大道锦龙二路路口,22.69771697,114.3157289
坪地消防中队,22.76542907,114.3138253
坪地保健所,22.77742705,114.3095887
坪地法庭,22.77595735,114.308051
低山村,22.74917608,114.2781214
圳埔肉菜市场,22.71134585,114.2485315
丹梓中路,22.73424419,114.3712622
岭澳新村,22.59539745,114.4694938
官湖社区,22.60599903,114.420889
葵丰石场村,22.63775948,114.4092301
葵丰社区工作站,22.63827242,114.4072521
雍景城东,22.78270164,113.9032403
红花山体育中心,22.77864639,113.9015588
东湖派出所,22.578814,114.1325293
绿景山庄,22.58862027,114.1161841
理想新城,22.59148609,114.1221558
银湖牌坊,22.58313359,114.0782365
龙城高级中学东,22.73251658,114.213101
比亚迪学校,22.69087373,114.2688219
石井村,22.69459563,114.3781422
丹梓狮岭路口,22.74225327,114.3845545
金沙社区,22.7478842,114.3952815
长隆村口,22.74527018,114.3895873
大布巷,22.72342854,114.0346442
金泽花园,22.72065868,114.0353241
石岩湖路口,22.71153793,113.9039221
玉律,22.71729691,113.9018748
玉塘派出所,22.72331413,113.9023607
田寮,22.72984125,113.9025133
叠翠新峰,22.72088508,114.2634373
龙岗平南社区,22.71257336,114.2648326
丹竹头社区,22.62274,114.1469914
红宝石,22.60300863,113.847814
上围园,22.60389999,113.8505766
固南二路口,22.60449263,113.8523027
华洋厂,22.60391575,113.8562889
固戍路口,22.60440425,113.8587815
西乡富士康,22.62301079,113.8359354
钟屋新村,22.62498137,113.8353407
草围社区,22.62630798,113.8347049
草围公园,22.62669343,113.8339008
福永成霖厂,22.69976534,113.7962838
盛和兴厂,22.69970672,113.792071
正高公司,22.69967744,113.7885231
宝安人才园,22.69959803,113.7902739
伟创力电子,22.686176,113.7933258
新丰（BP）电器厂,22.68612983,113.789918
福永供电站,22.66942949,113.8197571
福永街道办,22.67397643,113.8170786
福永康之宝,22.67537608,113.8159916
龙翔山庄,22.67791088,113.8140513
福海工业区,22.67866798,113.8048403
美希美工业园,22.67816937,113.7997807
福永卫生监督所,22.68242661,113.8235124
白石厦村,22.67994799,113.8234082
福永家私街,22.66963046,113.8234751
福围人行天桥,22.66309977,113.8228839
机场路口,22.65168504,113.8244218
航空物流园,22.64350474,113.8223567
沙井佳华商场,22.73029002,113.8197652
安胜天桥,22.7136343,113.8104495
学府雅苑,22.71785272,113.8113055
马安山地铁站,22.72074852,113.812715
拾悦城,22.72459204,113.8151863
壆岗村,22.72885051,113.8182131
沙井地铁站,22.73502183,113.8198571
蚝乡,22.73913623,113.8201747
沙井卫生监督所,22.74130727,113.8205376
益华电子城,22.74769348,113.8211357
沙井新和,22.7534969,113.8217651
新桥保利达广场,22.73228944,113.8514906
新桥高速路口,22.7339092,113.8497544
新桥市场,22.74022175,113.8333962
洋下四区,22.74106178,113.8335485
沙松路口,22.75490336,113.8195921
凤凰商业中心,22.70223751,113.8319086
凤凰夜市,22.70172955,113.8329394
福永凤凰小学,22.69776553,113.8329236
凤凰总站,22.69766464,113.8362324
凤凰塔,22.6943619,113.8321237
凤凰广场,22.69274026,113.8321038
凤凰第二工业区,22.68765596,113.8405994
凤凰山脚,22.68578726,113.8439481
立新湖花园,22.68493459,113.8222297
大兴果场,22.61088476,113.920603
宝安笔架山,22.6231316,113.9208092
东方明工业城,22.58463328,113.9051625
新安综合执法队,22.58117512,113.9086936
大宝海圳路口,22.5783188,113.911497
宝安中学,22.5742132,113.9156009
灵芝地铁站,22.5703763,113.8974516
翻身地铁站,22.56312448,113.8886432
理光数码,22.68233916,113.7853063
旭竟昌,22.68240786,113.7820687
新桥陂口,22.74310515,113.8351636
沙井建材市场,22.75222465,113.8230145
沙井东山书院,22.75340986,113.8201417
后亭路口,22.75606966,113.8151502
步涌市场,22.75813254,113.8111083
才华学校,22.75979224,113.80793
步涌新村,22.76047567,113.8060581
共和第八工业区,22.76344811,113.7987466
沙井万众百货,22.76383258,113.7972891
丽城工业区,22.76632688,113.7916607
鹏程花园,22.76204796,113.8019396
沙井中学,22.74648004,113.8116094
立岗路口,22.74630153,113.8145472
沙井中学西,22.7467504,113.8085644
壆岗幼儿园,22.73683242,113.8177935
觉园新村,22.74000916,113.816556
沙井中学路口,22.74581118,113.8164242
标尚学校,22.80324334,113.8572143
松岗好万年百货,22.81377639,113.859182
原禄机械,22.81775401,113.8592198
创世龙科技,22.82214668,113.8616307
燕川北部工业园,22.82269668,113.8657481
翔耀公司,22.6992957,113.8310736
白石厦社区,22.6800957,113.818503
白石厦警区,22.67952328,113.820329
白石厦市场,22.67704086,113.821394
东环路口,22.70841715,113.8386019
蚝四南安科技,22.70884343,113.8366046
景顺油站,22.70895464,113.8302387
新沙桥头,22.72936085,113.8344496
上星社区,22.73182936,113.8313302
新桥中心公园,22.73106802,113.8262346
中心新沙路口,22.73125195,113.8241078
佳华天桥,22.73047935,113.8204991
壆岗大厦,22.73234877,113.8156871
中亭路口,22.75828718,113.8195227
东江钢铁,22.7613871,113.8194704
畔山御景花园,22.77656686,113.8073824
江边工业区,22.77655788,113.8073955
潭头小学,22.75354551,113.8365506
芙蓉路口,22.74787182,113.8396451
丰盛科技,22.79015225,113.8293231
碧头路口,22.78138569,113.8157852
朗下居委会,22.77679531,113.8169055
中海西岸华府,22.77418135,113.8175364
中海西岸华府路口,22.77138952,113.8182033
福围,22.65262341,113.8167621
永福苑,22.65827127,113.8124754
怀德新村,22.66313619,113.8097219
福永海鲜市场,22.66572321,113.8072753
新和天桥③,22.67050944,113.801743
福永地铁站①,22.67480749,113.8011683
福海,22.68044572,113.8014747
同泰时代中心,22.68343514,113.8021331
丽晶国际,22.56062248,113.885725
深业新岸线,22.56189941,113.8712631
天骄小学,22.58683708,113.8889521
天骄世家,22.59062394,113.8871758
九围社区,22.65154064,113.8598618
九围村,22.64699251,113.859836
富源教育城,22.64195328,113.8596931
西乡富源工业城,22.63714481,113.8601544
鹤洲桥底,22.62419675,113.8570774
福永翠岗二区,22.66246722,113.8161489
鸿兴厂西,22.66387735,113.8190405
鸿兴厂东,22.66415943,113.8222983
兴围农村商业银行,22.63825054,113.8254354
中亚电子博览中心,22.74809713,113.8162336
后亭工业区,22.75629368,113.8157317
惠明盈工业园,22.79879762,113.8628748
燕川居委会,22.79990094,113.8589273
燕罗街道办,22.79989618,113.8576856
惠家乐超市,22.79982501,113.8541636
喜高工业区,22.79759195,113.8510464
鹏鼎控股,22.79442482,113.8490418
麒麟山公园东,22.78561051,113.8488549
交警燕罗扣车场,22.78367435,113.8489703
陶园中英文学校,22.77943723,113.8492592
嘉隆科技,22.68227987,113.7913375
兴围村委,22.64022196,113.8269132
凤凰客运,22.70485783,113.8292343
凤凰客运站路口,22.70484774,113.8313219
汉平电子,22.70474934,113.8327096
德昌南门,22.72570959,113.8398079
共和祥泰路口,22.75524648,113.7943045
明德学校南门,22.75500601,113.7964677
捷恒声电,22.75468335,113.7990379
共和步涌路口,22.75416009,113.802324
新佳得乐商场,22.75309674,113.803086
汇百川,22.75956574,113.8081686
沙井鹏程花园,22.76248071,113.8036047
和西电子,22.76478704,113.8047775
山门居委会,22.77670634,113.8487682
蓝天科技园,22.71384606,113.8387991
上南大街路口,22.72297794,113.8357014
上南联诚,22.72117764,113.8374601
桥头,22.68654673,113.8034773
沙井河桥,22.76139029,113.8232766
宝安大道蚝乡路口,22.73693562,113.8195091
沙井地铁站①,22.73490874,113.8192625
沙松桥,22.7668241,113.8203875
民主西环路口,22.73795058,113.7954874
海欣花园,22.73868528,113.7915964
蚝一社区,22.73821573,113.7863248
安托山高科技园,22.73776488,113.7833817
海上田园,22.73300341,113.7711995
沙浦围创业工业区,22.7873183,113.8150338
碧头四工业区,22.78879588,113.8123817
福永税务,22.64430947,113.8275948
庭威工业园,22.58116352,113.9166722
长丰工业园,22.58390909,113.919932
洪浪居委,22.57110296,113.9108644
武装部,22.55933713,113.909
留仙三路,22.585774,113.9207626
宝安残联,22.58647555,113.9064518
创业一村,22.58260616,113.9101266
后瑞村,22.63567609,113.8275994
后瑞地铁站,22.6319084,113.8306037
机场邮件处理中心,22.62726017,113.8327296
空港油库,22.62190755,113.8340705
华胜实验学校,22.61690317,113.8361503
西乡奋达科技,22.61331243,113.8376395
联升购物广场,22.59901084,113.8446373
康桥书院,22.65472947,113.8587562
簕竹角村,22.6600116,113.8596388
坤宏大厦,22.75199765,113.8229764
上星市场,22.73184922,113.8285838
沙井民营党工委,22.75212699,113.8075795
精英公司,22.75553813,113.7922127
蚝二共和工业区,22.75602034,113.7877327
朝阳路口,22.80888483,113.864254
黄埔三区,22.71996675,113.8406846
黄埔工业区,22.71823305,113.8457836
洪田路口,22.71620436,113.8498748
西荟城广场,22.7355412,113.8110206
沙井街道办,22.73535648,113.8056046
东塘村,22.73483135,113.8031654
市中西医结合医院,22.73486198,113.7994442
东兴花园,22.73439706,113.7969933
联能工业区,22.73470947,113.7889287
步涌同富裕,22.76552451,113.8005639
恒明珠工业园,22.76966486,113.794906
沙井同富裕工业区,22.76791699,113.7995242
敬业公司,22.76583996,113.8043564
中熙工业园,22.76834566,113.7988115
佘屋南路,22.78479909,113.8106765
碧头村委,22.78428944,113.8091285
碧涛花园,22.78358853,113.8068276
振泰工业城,22.77336725,113.8092335
平安大道路口,22.77495222,113.8044771
桥头地铁站①,22.68971929,113.8053689
桥南,22.69277314,113.8073919
宝安大道荔园路口,22.6968869,113.8100325
福海塘尾,22.70095813,113.8123583
塘尾地铁站①,22.70574929,113.813111
塘尾北,22.70860853,113.8125664
惠丰工业园,22.7020953,113.81903
98工业区,22.70920539,113.8200633
中心南环路口,22.71164151,113.8204703
簕竹角村总站,22.66375568,113.8567311
永丰路口,22.57495518,113.8619201
宝安妇幼东,22.56676101,113.8723026
新乐派出所,22.55558763,113.8963717
海乐实验学校,22.55799334,113.8991404
宝安1990,22.56290063,113.9049118
鸿兴印刷厂,22.66486081,113.8199288
万福广场西,22.67215723,113.8183531
石厦名苑,22.67775459,113.820281
永恒大厦,22.67553269,113.81687
福永医院,22.67407384,113.8146351
留仙一路,22.57860585,113.9142038
中粮创芯公园,22.58069213,113.9121048
塘朗山隧道路口,22.58848856,113.9826277
航嘉工业园,22.65644742,114.0771507
滢水山庄②,22.60423982,114.0470076
丽沙花都,22.71890657,113.8226026
学苑丽水路口,22.59283093,113.977909
月亮湾十号路总站,22.511907,113.8854017
实验学校总站③,22.55197091,114.085766
实验学校总站②,22.55197501,114.0854479
紫薇阁总站,22.56150824,114.0333232
第二职业技术学校,22.77731068,113.9458144
横岭村,22.61492083,114.0396384
白石龙地铁站西,22.60335391,114.0355972
建龙苑,22.57793944,114.054447
梅坳五路,22.57969533,114.0526679
环境监测中心,22.57754525,114.0534192
富士康南二门,22.6504262,114.0434379
龙华社保站,22.65786513,114.0101221
松岗大道芙蓉路口,22.74859723,113.852524
芙蓉工业区西,22.74065075,113.8488487
海伟厂,22.79875836,113.8658709
大华飞捷科技园,22.81252097,113.8646055
北方永发科技园,22.81566441,113.8650662
洪田村,22.7099101,113.8492848
万家福商场,22.71238031,113.8498199
创新智慧港,22.71469341,113.8502728
荣昌辉商行,22.72753254,113.8429118
沙井中心客运北,22.72972098,113.8384241
高桥底,22.72436897,113.8491726
益华电子城南,22.74782541,113.818999
乐荣集团,22.67803328,113.7916134
新和新兴工业园,22.67775002,113.7844107
铁岗村,22.60260231,113.8814989
铁岗公园,22.60198131,113.8847802
凤岗小学,22.60045143,113.8771435
凤凰岗村,22.59853192,113.8750523
流塘派出所,22.59625636,113.8720123
宝安海关大厦,22.5752503,113.9095651
宝安新村,22.5899835,113.8917627
泰华梧桐岛,22.60800736,113.8333365
全一电子厂北,22.60686105,113.8368909
西乡同富裕工业园,22.61087843,113.8402183
中信工业区,22.68802912,113.8239592
宝安法院北,22.55914698,113.904849
宝安退役军人事务局,22.56200385,113.9090948
固戍红湾,22.59582644,113.8459147
华万工业园,22.59120716,113.8502396
银田创意园,22.58941557,113.851616
宝安大道金海路口,22.58596408,113.856271
西乡盐田,22.57986569,113.8642936
同仁妇科医院,22.57834449,113.8664671
西乡步行街,22.57505794,113.8710739
河东,22.57111302,113.8760467
群贤花园,22.5697758,113.8780619
宝安人民医院,22.56799166,113.9083994
宝安党校,22.56992022,113.9088713
同乐海关,22.57224101,113.9088332
宝安灵芝小学,22.57595227,113.9075427
新安交警中队,22.58028244,113.903068
上合花园,22.5839567,113.899475
宝安公园南门,22.58574361,113.896589
上合新村,22.58492635,113.8929401
流塘旧村,22.581984,113.8872304
福永小学,22.67261986,113.81231
福永市场,22.67182986,113.8089342
青松西路东,22.7254103,114.391995
河唇村口,22.70550794,114.3807107
龙山小区,22.75236975,114.3965747
侨城东路口①,22.54536134,113.9946652
鸿新花园②,22.54674251,113.9995168
福宁总站,22.738909,114.2673104
上沙,22.53214042,114.0232139
南山汽车站,22.54480136,113.9087679
龙瑞佳园,22.48465697,113.8954845
富源花园,22.56027463,113.8916855
安乐小学,22.56300703,113.890313
熙龙湾,22.55127098,113.885201
兴华一路新湖路口,22.55532217,113.886256
双拥码头,22.53332488,114.4854123
鹏飞路口,22.60231157,114.4592177
沙井巡警中队,22.74938063,113.8140276
中华制漆,22.75025459,113.8103549
水产油站,22.75088154,113.8082273
码头桥,22.75116201,113.8051835
帝堂西环路口,22.74786013,113.7945526
中心路口,22.74549235,113.8233629
宝溪综合市场,22.77677281,113.8299005
松岗派出所,22.77592139,113.8268694
沙浦围牌坊,22.77505686,113.8237891
朗碧路口,22.77322708,113.8188189
茅洲河工业区,22.7724844,113.8124349
塘尾社区,22.70438249,113.8058722
福海儿童公园,22.70699996,113.8070802
塘尾十一区,22.70896574,113.8072445
福宁高新产业园,22.6891196,113.8259425
华福骏达物流园,22.69387547,113.8249044
福永新田旧区,22.69593001,113.8249323
福海天桥,22.67810489,113.7958422
新和二区,22.67464235,113.7974793
新和一区,22.67700275,113.7968346
福永海鲜市场南,22.66616545,113.805215
宝安日报社,22.58816507,113.8867755
嘉华花园,22.58543114,113.8824502
西乡街道办,22.583607,113.8803695
安源居,22.58681354,113.8763542
庄边村,22.58956092,113.8798413
福永中学,22.67446372,113.8086353
立新福洲大道路口,22.6774396,113.807833
半山酒店,22.68012309,113.807899
淇昇厂,22.68284967,113.8074637
大布头路中,22.71463426,114.0599687
福永水厂,22.68755664,113.8052708
新安公园,22.56373053,113.9074385
灵芝园新村,22.56859682,113.9024635
宝安税务局,22.57015194,113.9012038
公园路西一巷,22.57343697,113.8979157
诺铂广场,22.57679848,113.8943618
文汇学校,22.57825414,113.8930596
前进天虹商场,22.58192474,113.8891836
流塘公园南门,22.58379879,113.8872453
宝安体育馆东,22.56736116,113.8810064
金成名苑,22.56370845,113.88424
西城上筑,22.56075219,113.8873479
甲岸路口,22.556829,113.892029
中商花园,22.55495748,113.8939659
中南花园,22.55259287,113.896444
宝安第四专职消防队,22.72622274,113.7984172
步涌桥（临时）,22.75145691,113.8096359
沙井医院,22.735672,113.8019473
新桥街道办,22.74549429,113.8254485
吉祥路南,22.74182772,114.3669617
龙湖村,22.75571955,114.3557685
牛背工业区,22.75529776,114.3605855
石陂头村,22.75063691,114.3630485
禾场吓住宅区,22.74140684,114.3735034
万豪月半山,22.49156732,113.887969
荔山工业园总站,22.49466151,113.8884663
西部物流中心,22.5040271,113.8788913
汇利五金公司,22.70929954,113.8099515
南玻集团,22.71039138,113.806697
鑫龙科技园,22.72209981,113.8537356
天源隆超市,22.72202205,113.8538809
庄村桥头,22.72369482,113.8574168
庄村工业区,22.72630316,113.8588789
新玉路口,22.72800089,113.8597517
新桥农贸市场,22.74059621,113.8315512
长丰酒店,22.73703683,113.8367472
新桥汽配,22.73747758,113.84286
大庙路口,22.74347055,113.8268544
明德学校,22.75567987,113.7977286
共和社区,22.75815648,113.7979621
天源隆商场,22.76173604,113.7977684
松岗人民医院南,22.77800221,113.8341006
燕罗税务所,22.77471115,113.8362054
后瑞村口,22.63614004,113.8292147
友胜工业区,22.61102467,113.8461484
索佳路口,22.61261261,113.8444881
三围球场,22.61690434,113.8406942
凤凰山路口,22.6861307,113.8413795
福凤路中,22.68215807,113.8382457
福凤路南,22.67799596,113.8349021
龙王古庙,22.67727213,113.8327364
龙王古庙牌坊,22.67458483,113.8344111
利满达制衣厂,22.67354509,113.8306481
龙王古庙北,22.6736022,113.8339439
物流园,22.64223776,113.8206502
锦程凤塘大道路口,22.70573515,113.7780433
嘉源工业园,22.69881424,113.7774467
新安五路翻身路口,22.57370695,113.8774848
华丰金融港,22.57092077,113.8745953
崛起实验中学,22.56920711,113.8726551
福中福,22.56589888,113.8692111
宝安小学,22.56443895,113.8673737
立新湖创意园,22.68911693,113.8067745
大洋花园,22.69223524,113.8079273
中粮机器人智造园,22.69355145,113.8104267
万宝电子厂,22.69561182,113.8141594
凤城花园,22.69920788,113.8210697
美亚电器,22.69967616,113.8228645
大洋田工业区,22.7005968,113.821212
凤塘大道东,22.70251212,113.8147245
富盈门,22.58925548,113.8821306
丽景城,22.59105479,113.8799304
文竹园,22.50272748,113.925833
木墩路口,22.76594008,113.9228061
马安山,22.72559514,113.8153878
海灏华庭,22.56578672,113.8488569
广雅花园,22.78328328,113.8901108
长春花园,22.78461252,113.8891167
任达山庄②,22.67316491,113.9019166
西乡敬老院,22.60118815,113.8825254
鸿威工业区,22.58307401,113.9158483
创兴达商务中心,22.58634713,113.9126075
德昌电机南,22.72416176,113.8430664
德昌新沙路口,22.72628522,113.8391281
万丰社区,22.73016416,113.821937
衙边社区,22.74663628,113.8090297
宝梓北路,22.75240872,114.3778006
东联路口,22.74112295,114.3839307
沙浦居委,22.77665213,113.8263239
沙溪小学,22.77991313,113.8274266
沙浦市场,22.78323731,113.8270514
金信化工,22.71030276,113.8017675
YKK厂后门,22.71024865,113.798738
敬邦公司,22.71015668,113.7931558
南岭路口,22.7333054,113.8392329
蚝四新二工业区,22.73225011,113.8434408
步涌桥,22.75153895,113.809669
衙边工业区,22.74742059,113.8082275
衙边村,22.74555146,113.8078437
辛养村,22.74220029,113.8071902
明珠市场,22.73878212,113.8070871
锦程景芳路口,22.70109387,113.7776359
新安中学,22.56543677,113.8978461
新安湖,22.56714345,113.8998223
宝安广电中心,22.57102805,113.9043451
尚都花园,22.56334409,113.8818658
宝民派出所,22.5721336,113.8921001
宝安中医院,22.57447079,113.8948894
水口花园,22.57732955,113.8980886
上川村,22.58000989,113.9012402
黄田派出所东,22.63256312,113.8359237
黄田小学,22.63016471,113.8365656
金碧工业园,22.6345977,113.8337128
达利花园,22.63638933,113.8315298
深圳东方英文书院,22.65029776,113.8381194
宝安第一外语学校,22.64743824,113.8358656
天霖公司,22.67346902,113.8279358
西乡综合执法队①,22.59915508,113.8721313
宝田二路路口,22.60418795,113.8670896
宝安纯中医医院,22.603984,113.8671047
西乡交管所①,22.61186682,113.859263
宝梓路口,22.74071963,114.3786001
望牛岗村,22.70478225,114.3733308
赤坳河江岭段,22.66710776,114.358815
石陂头居民小组,22.70215002,114.3777559
碧岭幼儿园,22.66691055,114.285319
大运村（南门）,22.68456894,114.2146359
大运地铁接驳站场站,22.68929806,114.2222013
岭背坑居民小组,22.74946508,114.2321909
百合盛世,22.74488828,114.2299104
富桥社康中心,22.6823952,113.7941519
红发工业城B门,22.69796418,113.8001353
东方山水酒店,22.68238388,113.7886615
沙井南城百货,22.73636185,113.8076548
蚝三社区,22.74270555,113.7944687
新桥万丰工业区,22.71526625,113.8149944
新嘉华购物广场,22.71370404,113.8194524
丽晶酒店,22.71304439,113.824837
上南油站,22.7128357,113.8292218
沙浦围第一工业区,22.78489014,113.8288491
百业安家购物广场,22.78618567,113.8298979
杰和信塑胶模具厂,22.78650901,113.8269459
洋涌工业区,22.79138879,113.8197622
沙浦,22.77940927,113.8231742
格布雅苑,22.76660763,113.8259244
白石厦东,22.67724429,113.8264085
福永桥底,22.67662678,113.8223616
汉永酒店,22.6752678,113.820618
万福广场,22.67276752,113.8169804
怀德社区,22.67095245,113.8140477
福永交管所,22.66870026,113.8104193
洋田路口,22.66694863,113.8142094
新和村,22.67221227,113.7995124
富桥工业区,22.67907142,113.7969207
福永伟创力,22.68447398,113.7968161
永威五金塑料厂,22.68894875,113.7967226
合盛工业区,22.7022527,113.7950327
金科迅公司,22.68995535,113.7921979
货龙厂,22.68473378,113.7923125
宝桥二区北门,22.68360309,113.7923387
大家好广场,22.58273376,113.9044024
景山花园,22.69685815,113.816643
万宝厂,22.69524045,113.8133714
宝安桃源居,22.61633836,113.8566129
固戍地铁站,22.60267444,113.8423844
后瑞地铁站②,22.63179659,113.8301595
科比新工业园,22.68766594,113.7799311
新兴工业区四区,22.6790731,113.7792103
赛格导航,22.68254366,114.2768475
长隆村,22.74661278,114.3895692
吓陂村,22.76364263,114.3478556
宝龙四路路口,22.69417714,114.293438
梅沙街道办②,22.60157636,114.3085734
梅沙街道办③,22.60158115,114.3086863
华测检测,22.58273857,113.9185846
宝石路口,22.58921613,113.9171506
华丰机器人产业园,22.60655277,113.8389293
安乐工业区,22.60292766,113.830415
坪山交通运输局,22.71045826,114.3105976
永昌隆工业园,22.69277336,114.2501884
嶂背嶂盛路口,22.6904554,114.2466329
复亚医院,22.76807439,113.8249868
宝安华强城,22.70407697,113.8110778
塘尾万里学校,22.70448719,113.8096149
塘尾政域科技,22.70403064,113.8053429
凤塘和沙路口,22.70396192,113.8002993
塘尾富源工业区,22.70412024,113.7962956
怀德翠海,22.7040301,113.791739
艾默生工业园,22.70396971,113.7873903
西乡蚝业,22.70406471,113.7837667
捷和电机,22.7250188,113.8069346
宝兴科技,22.72050135,113.8065349
步涌工业区,22.75355452,113.8103236
锦胜财富广场,22.71642636,113.8119843
宝安行政中心北,22.5594442,113.8773575
海滨新村,22.56743065,113.8648365
宝源新村,22.5721426,113.8583496
宝安交通运输局①,22.56320497,113.896065
裕安路口,22.57093995,113.8892754
上川路口,22.57441707,113.8855369
宝安中心医院,22.58219939,113.876711
西乡立交①,22.58612979,113.873201
火王人行天桥,22.59437868,113.8674279
津村药业,22.66469882,113.8107956
翠岗公园,22.66835826,113.816321
翠岗西路口,22.66877401,113.8188968
怀德国际,22.66879527,113.8227472
怀德村委,22.67125422,113.8128836
福永交警中队,22.66644425,113.8160925
会展湾东城,22.7089156,113.7782896
福海街道办,22.69116614,113.8020514
桥头鸿德园,22.69179418,113.7992204
福海格林小镇,22.69064634,113.7954885
和平村口,22.6908551,113.7915283
立新湖公园,22.68497749,113.8059667
立新湖外国语学校,22.68036189,113.8078158
福永消防中队,22.67902454,113.8096627
乐利精密东门,22.67920228,113.7924432
台群精机,22.72060505,113.844402
新二村,22.62959105,114.4197348
富桥第五工业区,22.69048005,113.8086924
怀德翠湖工业区,22.69331519,113.8177933
丹竹头地铁站①,22.62231862,114.1419988
西乡中学,22.57665872,113.844729
华润电子,22.6939425,114.2969718
誉泰达,22.69417315,114.293437
华盛幼儿园,22.77218067,113.8343988
狮头岭居委会,22.6649538,114.0173215
华丰第一科技园,22.61010377,113.8353557
华丰第一工业园,22.61174883,113.8366209
茭塘村,22.71886669,113.8047815
大王山路口,22.72096741,113.8003282
闳晖科技园,22.72137471,113.7925587
蚝一西部工业园,22.72147805,113.7894918
兴英科技园,22.72173465,113.7819839
金正江大,22.72208664,113.7743406
鸿桥工业园西,22.72199236,113.7749927
松岗第三小学,22.7689276,113.8343358
田洋三路,22.75974646,113.867743
田洋一路,22.76026147,113.8653333
松岗中学,22.76079094,113.8626558
松岗体育中心,22.76186065,113.8575627
松岗天虹商场北,22.76405339,113.84753
松岗邮政,22.7654619,113.842797
东方居委会,22.76628625,113.8408681
高士拉链,22.70254181,113.7812136
和裕工业区,22.69857139,113.7808672
秀西路口,22.69469594,113.7805298
莱尔德电子,22.69023358,113.7801524
北方俊亿工业园,22.68372047,113.7795957
航盛电子,22.68023312,113.7794487
泰华阳光海,22.57506013,113.8548064
翻身派出所,22.57199296,113.8848302
富年华,22.57152793,113.8828747
泰华锦绣城,22.57336791,113.8849983
上川建安路口,22.57587319,113.8885643
建安新村,22.57798872,113.8909947
铁仔山公园,22.59890242,113.8643656
固戍村,22.60466243,113.8611255
劲力集团,22.60778594,113.858195
桃源居人行天桥,22.61192034,113.85479
宝安桃源居西,22.61439216,113.8536011
鹤洲立交,22.62053374,113.849513
联升百货,22.60126307,113.8455415
东华格林第二幼儿园,22.59789797,113.8423135
固戍东山幼儿园,22.59642925,113.8412208
沙边路口,22.59537978,113.8386272
沙边市场,22.597849,113.8378239
南昌路口,22.60414347,113.8352638
运昌航城大道路口,22.60505214,113.8329807
万家和百货,22.69513048,113.7877557
德金花园,22.69138102,113.7823146
美祥顺,22.71033236,113.7839877
中富厂,22.71019071,113.7878339
学府花园南,22.73863429,113.7915924
学府花园,22.74257665,113.7919349
星智机电,22.74762386,113.7924107
华丰第二工业园,22.61024794,113.8316709
广田深亚油站,22.80780936,113.8635767
罗租中新村,22.67281026,113.9306345
赐昱幼儿园,22.68895775,114.2431758
明峰大厦,22.68824143,114.2395561
嶂背一村综合市场,22.68732824,114.2378426
敏俊捷印刷,22.69526222,113.8185983
凤凰学校,22.69741177,113.831925
凤凰塔西,22.69451708,113.8311651
书香门第,22.60185946,114.0411298
大岭社区,22.63790527,114.0180157
兰竹东路东,22.71809799,114.3896601
沙井新城市广场,22.76107514,113.8041672
粤美特加油站,22.76237917,113.8009541
安浩瑞工业区,22.70762187,113.7934928
雅达厂,22.70754028,113.7877419
日东精密厂,22.70762354,113.7835841
雅兰仕,22.70804947,113.7788357
步涌市场东,22.75690348,113.8114122
沙井北环路口,22.75030323,113.8040246
蚝四村,22.74749305,113.8034272
水产市场,22.74293584,113.8019418
洪圣古庙,22.74098331,113.8001164
南沙派出所,22.72050441,113.8008385
沙井马鞍山,22.71621804,113.8123223
三扬轴业,22.72272424,113.7794649
钟屋,22.62651719,113.8449744
福中工业区,22.66293103,113.8187658
劲嘉彩印,22.66114708,113.8185915
下十围第一工业区,22.65925813,113.8152066
下十围市场,22.6554882,113.8169615
下十围新街,22.65682909,113.8154474
福永鼎丰科技园,22.67910188,113.7881325
同州电子厂,22.68412859,113.7880571
双金惠工业区,22.68786157,113.7879666
和平市场,22.69277022,113.7878611
和平中英文学校,22.69701981,113.7883108
永联学校,22.58025502,113.8937281
上合市场,22.58339289,113.8973727
蚝一濠景城,22.73879022,113.7846152
西沙蚝乡路口,22.74414517,113.7850107
嘉晶电子,22.74558901,113.785218
松岗信隆厂,22.77584441,113.8012961
江边工业五路,22.77641562,113.7979619
崇辉厂,22.77668402,113.7964292
金鹏城酒店,22.77200905,113.8313366
松河瑞园,22.77142909,113.82699
新桥市民广场,22.72758087,113.8240429
松瑞路口桥,22.77190834,113.8309376
同乐广场,22.71794821,114.3067805
长湖围社区,22.71457823,114.3083785
同德路,22.71548504,114.3105244
雅胜厂,22.7408716,114.2670823
金源路口,22.68003485,114.2255247
南头检查站（关外）01,22.55569809,113.9053524
南头检查站（关外）02,22.55564406,113.9054445
南头检查站（关外）03,22.55559403,113.9055295
南头检查站（关外）04,22.555562,113.9056235
南头检查站（关外）05,22.55552894,113.9057716
南头检查站（关外）06,22.55549691,113.9058686
曦城3号门,22.59269644,113.9007802
曦城商业中心,22.59760411,113.8969805
鑫豪盛大洋工业园,22.69246192,113.811627
好万年百货,22.71866894,113.7791135
和一村,22.71363602,113.7788664
锦程文丰大厦,22.72454813,113.7797884
蚝四工业园,22.7314661,113.8444655
水围路口,22.76734799,113.8386643
凤凰花苑,22.68570551,113.8254614
瓦窑花园,22.58535423,113.901454
兴东居委会,22.58490007,113.9079252
黄田,22.62966974,113.843282
翠湖花园,22.6385693,113.8355223
兴围路口,22.64633694,113.8291137
怡丰酒店,22.65544471,113.822003
怀德翠岗,22.66014127,113.8222885
新桥路口,22.74049208,113.8250728
幸福居,22.74236174,113.825189
新桥新和路口,22.75006461,113.8258182
沙四科技园,22.74815055,113.7854463
沙井边防站,22.75149704,113.7858149
和二才生围路口,22.71481265,113.7906829
大王山居委会,22.71446149,113.7987197
权升汽修厂,22.77062728,113.819541
江边公交总站,22.77565709,113.8165867
江边社区,22.77465378,113.8114
嶂背步行街,22.68574675,114.2383372
友爱门诊,22.68464284,114.2376727
园湖横一巷,22.6822383,114.2343866
华晟捷,22.68127331,114.233853
坪山河湿地公园,22.69724663,114.369054
沙井京基百纳,22.7314509,113.8023456
坪山天虹,22.68287759,114.3251775
第七高级中学,22.73725954,113.7790101
南头检查站（关外）07,22.55545488,113.9059476
南头检查站(关内)19,22.5542026,113.9068589
南头检查站(关内)18,22.55404971,113.9066329
南头检查站(关内)17,22.5540267,113.9066449
深南北环立交（关内）15,22.55395873,113.9065909
凤凰天桥,22.6886036,113.8269352
沙头工业区,22.72539267,113.8006167
南沙派出所西,22.72050217,113.7995133
大王山村,22.71725731,113.7996649
大王山新村南,22.7156417,113.8002273
310总站,22.71525719,113.8004569
沙头市场,22.72423585,113.8005345
东塘街路口,22.73574795,113.8019333
新桥市民广场南,22.72395042,113.8248473
东塘村围仔,22.73710561,113.8013858
上南路口,22.71873258,113.8432492
黄埔社区,22.71654261,113.842349
南洞村口,22.71403673,113.8414609
德昌天桥,22.72519219,113.8446483
新沙路口,22.72246869,113.8444931
日清电子,22.67913721,113.792385
桥塘路中,22.69914522,113.802093
桥头市场,22.69455966,113.8010948
宝安客运中心南,22.5926532,113.8808155
西乡盐田大门,22.57936678,113.8619729
宝安文具批发市场,22.58482241,113.8679024
福安楼,22.58635074,113.8909171
宝安地铁站,22.55695047,113.8762268
沙浦围居委会,22.77598091,113.820798
东方派出所,22.75781359,113.8401126
松岗工程质检站,22.75812576,113.8347315
红星社康中心,22.7678189,113.8326775
福桥,22.67312782,113.8005479
新丰苑,22.71672262,113.8217805
茭塘村口,22.72575622,113.8038998
西环路口,22.72684123,113.7945109
深南北环立交（关内）14,22.55392476,113.9065259
深南北环立交（关内）13,22.55385782,113.9064068
深南北环立交（关内）12,22.55385182,113.9064108
南头检查站(关内)11,22.55380986,113.9063118
深南北环立交（关内）08,22.55369397,113.9060578
龙腾社区,22.68567648,113.9269487
石岩影剧院,22.68259987,113.9332964
石岩新村②,22.67649169,113.9201661
恒富花园,22.69434518,113.9356241
劲嘉松岗工业园,22.81069008,113.8534362
立才学校,22.73819731,113.7921747
园湖大厦,22.68005386,114.2345068
五园小学,22.6167055,114.0676269
黄金山公园,22.63994443,114.0620939
布吉国土所,22.61007742,114.1211817
三联路口,22.62843365,114.1037693
田洋五路,22.7592378,113.8697127
松岗红星社区,22.76899464,113.8371011
翡翠市场,22.76970864,113.8377838
松岗桥底佳华,22.77140244,113.8413419
松岗桥底,22.7708123,113.8428699
生活缘,22.77263231,113.8359187
福永医院凤凰分院,22.69454278,113.8283416
凤凰油站,22.70000799,113.8275882
稔田社区,22.70183851,113.8275821
稔田北人行天桥,22.70569383,113.8282857
新桥南环路口①,22.71249485,113.8297833
上寮花园,22.7224992,113.8298318
上南派出所,22.72161171,113.8326564
马鞍山信用社,22.71666282,113.8133509
华伦科技园,22.70484213,113.835868
兴围第三工业区,22.70348239,113.839694
铁鹰厂,22.70231814,113.8416421
华益盛工业园,22.70145369,113.8384479
金凤凰购物广场,22.69880852,113.836875
润恒鼎丰高新园,22.7051576,113.7815852
泽台电子,22.72699218,113.7899434
沙一万安工业区,22.72724473,113.7854777
华丰国际智造城,22.72740167,113.7832281
兴英科技北,22.72751226,113.7805778
建溢集团,22.80411034,113.8753227
正大安工业城,22.80904198,113.8746342
罗田龙山六路路口,22.81637814,113.877935
兴围,22.63817262,113.8244126
乐惠多购物广场,22.67641066,113.8060585
盛世广场,22.67181596,113.8045129
宝冠路口,22.62815246,114.1394342
中海信工业园,22.63344659,114.1375674
龙山工业区,22.60240801,114.1332163
聚友工业园,22.67833858,113.8881654
鸿图工业园,22.62608687,113.8617274
东部电厂,22.57196079,114.4439297
冠城产业园,22.79832915,113.8980115
朱坳水厂,22.60007758,113.867135
万丰小学,22.72886331,113.8191697
沙井自来水公司,22.729709,113.8447012
新玉新发二路口,22.73129839,113.8532047
龙璟印刷工业园,22.72842935,113.8609122
花果山居委会,22.77395986,113.8392283
碧头第三工业区,22.77952042,113.8014232
碧头文化广场,22.78100857,113.8000366
碧头工业大道北,22.78250481,113.7986892
碧头文武学校,22.780459,113.8053801
福海和平中心,22.69047373,113.7878221
中粮创芯公园北,22.58412796,113.9132046
雪花啤酒厂,22.58723555,113.9169618
新安税务,22.57828642,113.9066293
洪浪北地铁站,22.57580473,113.9037756
灵芝公园北,22.5748342,113.9024401
西乡路口,22.57944536,113.8801985
宝安交通运输局,22.56316199,113.8970007
宝安万佳,22.55959295,113.9010094
耀邦厂,22.74408208,114.3807252
坪山光祖公园,22.73453298,114.3713781
坑梓沙梨园小区,22.7432153,114.3661283
光祖北路,22.74223711,114.366535
信义家园,22.6622029,114.2047769
嘉丽厂,22.66187108,114.2078844
嘉华路,22.66107529,114.2079155
窝肚市场,22.66025377,114.2097512
六约公园,22.63509645,114.1819439
窝肚路口,22.65818613,114.2096922
标尚学校东,22.80274081,113.8567272
中亭东路口,22.75957674,113.8189752
中亭北路口,22.75952861,113.8178361
后亭社区,22.75298921,113.8160026
光明交通局,22.75797317,113.9332506
大工业区党群服务中心,22.73041375,114.3772163
坑梓影剧院,22.74020975,114.3682159
新羌居委,22.80380474,113.9380613
光明中心站,22.76572404,113.9399624
国际自行车赛场,22.68575441,114.201814
坪山总站,22.68922064,114.3360029
科展,22.72540328,114.088904
凌屋小区,22.72163701,114.0916829
版画基地,22.74267568,114.087033
岭脚村,22.69697226,114.3733273
碧岭现代精密厂,22.66912718,114.2764486
京宜工业区,22.67109996,114.2812891
石夹路口,22.67240211,114.2840128
光明大道换乘站,22.75460719,113.9306853
凤凰城地铁站南,22.74823422,113.9263551
华南城金威广场,22.67958445,114.1224506
大山路口,22.65183628,114.1507522
海洋世纪工业园,22.66716337,114.0596601
黄军山社区,22.64242954,114.055149
坂田夜市,22.63107454,114.052297
大发埔村路口,22.63337017,114.0506249
莲花山总站,22.55089015,114.0452796
蛇口广场,22.48797608,113.9269102
黄埔雅苑总站,22.54558456,114.0467478
双龙地铁站①,22.73083487,114.2712205
龙岗COCOPark东,22.69510854,114.2259984
水晶之城,22.6710582,114.2166754
独竹,22.65635719,114.2086312
西乡桃源居总站,22.62213025,113.8564973
开屏花园,22.57349349,113.8794838
翻身小学,22.56965145,113.8834566
应人石村,22.64138023,113.9235826
大福老村,22.66432222,114.2368402
园山风景区,22.64797216,114.2330603
春园路口,22.59639593,113.9746365
深大总医院南,22.59429157,113.9830483
中科院研究院,22.59528959,113.986334
中科院深圳先进院,22.59496885,113.9875899
塘坑仔西,22.59956687,114.1818058
兰科中心,22.6007791,114.1787317
新田公园,22.60449903,114.1714559
大望社康,22.60380554,114.1700823
三区金融街,22.56076171,113.9052281
汉宝大厦,22.56836849,113.8976268
华盛辉大厦,22.5822216,113.8556519
盐田村委,22.58417523,113.8576132
宝安法院,22.5591912,113.9068246
沁园公园,22.55719124,113.9045821
壆岗市场,22.73347608,113.8181567
万丰公园路口,22.7216237,113.8156297
泉宝工业区,22.6922448,113.9183027
美益肉联厂,22.7270084,113.8865955
亿和模具,22.73184435,113.8873721
田寮工业区,22.74071635,113.8843759
尚荣科技,22.68859028,114.2990926
富安街,22.68796316,114.1336638
马塘村,22.75722426,114.317745
同兴厂,22.78483757,114.2837358
龙西公交场站,22.75609678,114.2407347
龙东社区,22.72736327,114.2838764
龙东上井总站,22.71621213,114.2768064
圣淘沙,22.5753767,113.858656
富通城二期,22.57205545,113.8554811
大益广场,22.58199219,113.8648927
富通城三期,22.5684495,113.8520063
金碧实验学校,22.5911374,113.8768236
艺丰花园,22.57391002,114.0614427
深南电路,22.78573984,114.2985091
大水坑一村,22.73469611,114.0010128
宝源科技总站,22.73448581,113.9968474
观澜新田总站,22.70903742,114.0941265
坪山围,22.69584881,114.3355611
汤坑站,22.66973774,114.3075945
秀新村,22.74322093,114.3690311
富通城五期,22.57261332,113.8496374
玉湖湾花园,22.57492725,113.846703
恒生医院,22.57874021,113.8481353
67区总站,22.57782111,113.9152347
宝安桃花源总站,22.61225421,113.8836742
五和雅南路口,22.6072862,114.0535491
怡景新村,22.5692825,113.8876027
后瑞总站,22.63813278,113.8314064
白坭坑社区,22.65686051,114.1520062
天濠广场,22.69507517,114.1069851
天鹅工业区,22.67745353,114.153952
山厦市场,22.70594528,114.1099315
吉厦早禾坑工业区,22.62766497,114.1590358
木棉湾总站,22.60895618,114.1297542
灵芝园,22.57305255,113.9052003
江豪步行街,22.80900417,113.8893934
李松蓢路口,22.800356,113.884259
马田北环路口,22.7997292,113.8809125
三围村委,22.60961107,113.8462557
三祝里村,22.68524254,113.9488504
应人石路口,22.64378879,113.9209088
佳业达公司,22.65869468,113.9084406
雅信通公司,22.65821354,113.9068513
新兴工业集团,22.77650651,113.867251
公明中行,22.7764033,113.9006354
富民广场,22.73594732,113.9869823
白花广场东,22.73850851,113.9919556
李松蓢社康,22.80169277,113.886815
李松蓢新村,22.80329245,113.8801772
六约新村,22.64485246,114.1662803
欧洲城总站,22.55876457,113.9608823
高发科技园总站,22.55786895,113.9697383
大冲都市花园,22.54709609,113.9489042
城市山谷,22.55018388,113.948902
大洋童心幼儿园,22.69459935,113.8143079
景山实验学校,22.69532999,113.8168887
新赛斯电子,22.6963553,113.8193182
将石路口,22.74884218,113.8830627
东方路口,22.75645343,113.8745124
世峰科技园,22.76999731,113.8715684
多家福商城,22.74632141,114.3686611
福星大厦,22.53848995,114.0775894
福星路中,22.53615831,114.0772716
华星光电,22.74145041,113.9193063
东长路口,22.74037841,113.9126247
美景花园,22.75843745,113.936587
笔架山石场,22.63324269,113.9209625
谷峰石材厂,22.62924946,113.9209008
牛成村,22.6147601,113.9206708
铁岗水库西门,22.6109624,113.8836713
丽湖花园总站,22.63214186,114.1009178
中盛科技园,22.65584201,114.1125658
布龙立交,22.61442356,114.1244768
福田海关,22.51609434,114.0590794
绒花路口西①,22.5108854,114.0497001
广岭小区,22.55953854,114.1490096
福田交通枢纽,22.53465477,114.007319
滨河总站,22.53832856,114.0866622
海滨中学,22.56173651,113.8917475
石鸿花园,22.55764547,113.896854
恒生医院总站,22.57954955,113.8465885
翻身裕安一路口,22.56633948,113.886869
雅豪轩,22.57759996,113.8884221
流塘村,22.58091599,113.8813861
大凤村,22.64818893,114.2350384
大康社区工作站,22.64578074,114.2236111
山子下安康路口,22.64551664,114.22219
328工业区,22.64874756,114.2153815
梧桐山市场,22.59517803,114.187211
西丽动物园总站,22.59862174,113.9614356
丽山路南,22.58677465,113.9601131
万科红,22.60053647,114.1226692
求水山公园,22.60354787,114.137867
石岩南岗工业区,22.65528911,113.9069255
田寮公园,22.73172327,113.8992385
简上社区公园南,22.63624644,114.0053862
英才学校,22.76977457,113.8738244
深坑工业区,22.64270453,114.1719298
振业城,22.64140206,114.174212
龙珠花园③,22.60748971,114.1210987
翠枫豪园总站,22.61456374,114.0967078
宝坪路口,22.69099079,114.2739387
梅园路①,22.56471741,114.1019824
琼宇路,22.55387341,113.9417485
淘金山绿道南站,22.5853737,114.1436824
淘金山小区,22.58756635,114.1393596
海月路中,22.50236278,113.9299809
万家百货,22.73112101,113.8225336
沙井油站,22.73229305,113.8054283
和二村,22.71459905,113.7881924
同乐学校,22.56441063,113.9162264
南山公安分局,22.54521461,113.9189898
松坪山,22.56035056,113.9526599
白石洲西,22.5461186,113.9600767
香山西街路口,22.551772,113.9609356
新塘街,22.54963621,113.9620774
南园村东,22.51766165,113.9135537
南园村,22.52182841,113.9136905
向南村,22.52642535,113.9135182
中油大厦,22.52204219,113.9175397
深大北门②,22.54279766,113.9323652
后海滨路口,22.50787859,113.9345372
深圳湾口岸,22.5071194,113.9438874
滨海科苑立交,22.52407665,113.9393755
弘雅小学,22.57895727,113.8870624
公明居委会,22.78561684,113.8858269
宝安十三区,22.57548329,113.8862517
新乐社区,22.55470141,113.9007025
荣超滨海大厦,22.55252621,113.8743871
东大路中,22.55895428,114.5307104
长沙头,22.55231401,114.5619625
和平服务区,22.5525479,114.5619014
联大工业园,22.73467292,113.967943
育新学校,22.73806157,113.9531956
光明城站,22.73651918,113.9487144
宝江工业区,22.66020749,114.1194683
辅城坳总站,22.70378025,114.0976669
孖岭社康中心,22.57109275,114.0597503
松坪山总站,22.55974446,113.9514241
丰泽湖山庄,22.59396554,114.0499533
龙塘新村北,22.63607743,114.0101086
龙塘新村,22.63342864,114.0119064
790总站,22.62667413,113.8549033
宝安电子数码城西,22.56931138,113.8901244
牛根坳创意园,22.78693648,113.9448422
光明凤凰学校,22.74269438,113.9439613
南凤派出所,22.74043368,113.9436509
大康路口,22.6492678,114.208773
龙岗第三人民医院南,22.6504105,114.2071486
隆盛花园,22.65117717,114.1978763
排榜市场,22.65353883,114.1935289
腾昌一路,22.65489006,114.1896122
港湾生活小区,22.48375344,113.8823686
大族云峰东,22.62404606,114.0669598
781总站,22.73459157,113.8501062
上高坡工业区,22.71071076,113.8404024
新二警务室,22.72685375,113.8440828
马山头第五工业区,22.77134757,113.8743702
荣健农批,22.7693888,113.8681051
杜邦公司,22.76154685,113.9176475
新村后门,22.69783881,114.0261617
茜坑老村,22.68985175,114.0246794
上围村口,22.68666881,114.0731903
育才三中,22.49965,113.9298442
北斗人行天桥,22.54633078,114.1331227
沙井中心客运站,22.7297115,113.8376019
南山设计产业园,22.55004896,113.9182758
中山公园东门,22.55160962,113.9185076
玉泉南山路口,22.54917321,113.9201032
沙河医院,22.54509243,113.9640227
沙河街,22.54680214,113.9637082
纯水岸西,22.55218883,113.9655579
侨城馨苑,22.5525783,113.9619595
华联花园,22.52550857,113.9145921
向南东村,22.52736366,113.9167816
荔园大厦,22.52646551,113.9219628
阳光棕榈园,22.53120638,113.9083007
高新南十一道,22.52738281,113.9423693
深圳湾体育中心,22.52478321,113.9442288
南外科苑小学,22.52735242,113.9440739
大冲①,22.54312513,113.9508012
桃源康复中心,22.58875672,113.959596
科发路,22.54623916,113.943176
南头古城,22.54356777,113.914402
宝城三区,22.55915066,113.9025742
罗岗派出所,22.59804577,114.1208408
石岩消防中队,22.70162724,113.9138621
石岩径贝村,22.69345867,113.9158933
同乐总站,22.71917093,114.3148598
翠隆花园,22.6219777,114.1090227
五和地铁站北,22.63011088,114.0539172
梅花山庄,22.63286465,114.0410618
滨海雅苑,22.6351662,114.4275125
龙湖学校,22.68551213,114.1080111
明华电子厂,22.69714753,114.0947368
启英学校,22.69357269,114.0968518
大观邸,22.66760702,114.1438826
北门坳,22.70064548,114.1312074
平湖社保站,22.70627127,114.1276995
上塘工业区,22.63415584,114.0148942
东二市场,22.6402067,114.0166507
上塘村委,22.64229274,114.0168511
西头东苑,22.64334708,114.0156089
西头新村,22.64553606,114.0137362
凤凰居委会,22.73603743,113.9434216
宏发高新产业园,22.73866889,113.8887312
塘尾羽毛球馆,22.73942211,113.8958787
巨基四季名苑,22.74742871,113.8297008
岗头村总站,22.66408916,114.0662905
华为高速路口,22.66617235,114.0535862
稼先路南,22.65587247,114.0524812
华为基地路口,22.66644648,114.0552374
创维工业园,22.64145,113.9147388
创维路口,22.6418551,113.917994
长城电脑,22.68995506,113.9503576
西田锦绣工业园,22.80802868,113.8989865
下村第五工业区,22.80021489,113.8916092
金湖湾园区,22.73539201,114.0076382
大水坑社区,22.73190305,114.0026219
白石科苑路口,22.53566169,113.9417137
玉泉艺园路口,22.54922666,113.9224441
方鼎华庭,22.55519089,113.9209184
南山农批市场,22.56039921,113.9192188
新安学院,22.55967897,113.9641495
龙井工业区,22.56614605,113.9551939
光前村,22.56514627,113.9580056
龙井北路,22.56973192,113.9529907
南山残联,22.52829157,113.9100461
大新村,22.53289813,113.9104188
科苑地铁站,22.53147904,113.9411238
深大北门①,22.54238631,113.9356598
坝光路口,22.63117033,114.4326188
鹤坑桥洞,22.78905025,114.3280144
鹤坑居民小组,22.78801156,114.3264628
龙壁路口,22.63707148,114.051179
十二号路,22.50951492,113.8851385
南方科技大学②,22.59488384,113.9935339
南方科技大学,22.5957299,113.9954509
石岩汽车总站,22.68665982,113.9233089
四海,22.50381922,113.9218792
上横朗,22.6806912,113.9739886
光明文化馆,22.77821896,113.8981829
新围第二工业区,22.76937672,113.9042355
南山垃圾发电厂,22.48683156,113.87247
海星码头,22.49493464,113.8695973
桃花园总站,22.50708011,113.9118165
科苑南公交总站,22.52718408,113.9417262
奥萨医药,22.55268622,113.9334674
宝祥工业园,22.69562094,113.7790679
凤凰社康中心,22.70181921,113.8306192
凤凰派出所,22.6963644,113.8310507
广生医院,22.69898452,113.8234902
桥头小学,22.69031161,113.8033598
福永码头,22.66100274,113.7965008
二村市场,22.73173332,114.00421
三村路口,22.73197389,114.0063317
中兴工业园一号岗,22.57991884,113.928706
中兴工业园二号岗,22.5820594,113.9315524
深大文科楼,22.54229321,113.9320315
松和小学,22.64468099,114.0343379
工业路口,22.65085053,114.0121786
龙华区委区政府,22.69909347,114.0418752
贝尔路地铁站,22.64566043,114.0613061
上石家村口,22.76619388,113.8978764
金谷动力,22.76476917,113.8940587
上石家市场,22.76430691,113.8917726
光明实验学校东,22.75894813,113.9087353
科技园①,22.54323512,113.9427937
研祥科技大厦①,22.54702246,113.927529
高发科技园,22.55697419,113.9732393
麒麟花园,22.5492295,113.9250806
研祥科技大厦②,22.54871329,113.9282903
宝珠花园,22.57425474,113.9511297
珠光地铁站②,22.57124265,113.953893
珠光村①,22.57454892,113.9540565
珠光地铁站①,22.57124268,113.9567896
南山市场①,22.52895759,113.9143779
南山市场②,22.52993679,113.9140629
荔苑小区,22.53082359,113.9177861
高科技中心,22.54050177,113.9410053
老办公楼,22.4731694,113.8758595
赤湾港,22.48067176,113.8813714
万众城家居广场,22.63338217,114.0364008
锦绣江南,22.63656332,114.022774
隔圳新村,22.64006571,114.0138703
上芬地铁站,22.64428107,114.0110677
960总站,22.71256178,114.133604
富民路口,22.68522346,114.1283913
新圩,22.5448797,114.5107218
航海学校,22.54649643,114.5187296
荔枝山村,22.55991539,114.5348704
深圳边检总站医院①,22.57541729,114.0986041
深圳软件园,22.5493631,113.9355025
龙华电信大厦,22.65191391,114.0203913
元芬村,22.65425115,114.0006739
高峰学校,22.65615218,114.0055126
龙胜大厦,22.65039253,114.0115282
五米阳光,22.65329106,114.0159804
樟坑村口,22.61583798,114.0339535
长圳路口,22.72058452,113.9037344
雅兰新村,22.62528935,114.1485783
吉厦村,22.61671355,114.1540351
黄贝派出所,22.55296331,114.13031
大布头,22.71785233,114.0606899
松坪村三期,22.56288099,113.9510725
科陆大厦,22.56461046,113.9380166
凤凰东发幼儿园,22.75995009,113.9116625
张屋村,22.74040755,113.9292814
庙溪新村,22.7445838,114.05365
观澜街道执法队,22.75078774,114.0345486
东城智居中心,22.77379842,114.3137939
横岭总站,22.77189865,114.343377
大康福田村,22.64946819,114.2405974
桂庙站,22.52843693,113.9272264
阳光粤海大厦,22.53523502,113.9377858
深大地铁站,22.54029756,113.938984
深云村①,22.55930413,113.9857977
万科城实验学校,22.65031943,114.0613677
龙华汽车站东,22.67244169,114.0281473
科技园②,22.54310623,113.9401453
侨城坊,22.55475869,113.9738301
天鹅堡,22.5519742,113.9771973
帝景园,22.54552221,113.9319014
军休二所,22.56415325,113.9616005
市车管所,22.56305102,113.9658925
龙井路口,22.56333041,113.9672166
田厦村,22.53330669,113.9139717
桃园南新路口,22.53561663,113.9151694
常兴新村,22.53371008,113.9159474
高新南地铁站,22.53580982,113.9441622
科技南路,22.53362711,113.945054
阳光带海滨城,22.52965526,113.9474516
中兴通讯①,22.53926719,113.9433841
中洲控股中心大厦,22.51886457,113.9277646
莲塘梧桐苑总站,22.56106529,114.1769274
闸口,22.4700795,113.877285
沙湾路北,22.60826093,114.1594893
华南城总站,22.6748432,114.1263167
良安田,22.66519649,114.1444422
龙胜地铁站北,22.64611822,114.0092011
赤岭头村,22.65205621,114.0051169
元芬地铁站,22.66027571,113.9994167
YKK拉链厂,22.70945017,113.8001155
波托菲诺,22.55027466,113.9721992
南山第二实验学校,22.55255525,113.9705029
彩虹科技大厦,22.55732194,113.936402
松岗塘下涌,22.81015698,113.8440704
宝华厂,22.71929124,113.8515827
樟坑三区,22.61651118,114.0354886
惠鑫公寓,22.60371647,114.0414601
景龙中环龙雷路口,22.64745608,114.0188581
金盈新村,22.67528388,113.9976173
岗头路口总站,22.64529944,114.0760765
上横朗路口,22.6801999,113.9762194
坂田手造文化街,22.61941152,114.0603256
光雅园,22.61934968,114.0582225
龙华总站,22.68186249,114.0196241
岗贝居民小组,22.70909007,114.2357152
石井路口,22.69278826,114.374438
龙背小学,22.68900102,114.3532307
麻布村,22.5753908,113.8681966
西乡麻布社区,22.57432102,113.8674041
民生路口,22.78576717,113.9071653
世峰工业区,22.78938516,113.906687
塘家市场,22.73714983,113.9323988
塘家社区,22.7353964,113.9329953
塘家第一工业区,22.7329342,113.9335629
八斗路口,22.64895193,114.2387979
大万村,22.64848045,114.23671
科技中一路,22.5473777,113.9308393
凯丽花园,22.54555479,113.9346537
龙井综合楼,22.56219064,113.9682693
深职院留仙洞校区,22.58317382,113.9343576
南方科技大学医院,22.5834491,113.9444698
西丽南路,22.57850106,113.9485407
协和深圳医院,22.53540655,113.9175789
大新小学,22.53759399,113.9102225
南头街道办,22.53945001,113.9116304
创维大厦,22.539918,113.9449358
高新公寓,22.537799,113.9449959
天鹅堡东,22.54820134,113.9772454
滨海之窗,22.52489767,113.9323143
南庆街,22.54669094,114.1134853
福田保税区总站（桂花路）,22.51369698,114.0549517
福保桂花苑南,22.51089014,114.0438134
福源花园,22.51235424,114.0492346
大鹏总站,22.59912767,114.4686588
大梅沙,22.60191297,114.3054458
惠联百货,22.5969886,114.4714351
同乐工业区,22.71951791,114.3010471
坪山田头总站,22.69454738,114.3926411
五区总站,22.5612443,113.9032713
鹤洲学校,22.6312453,113.8576031
源盛路北,22.72559396,114.2859257
龙东公园,22.72235436,114.2855752
仁安医院,22.7229681,114.25153
金碧东纵路口,22.69250006,114.3321244
东方信息港,22.55736527,113.9390228
南山中英文学校,22.54128403,113.9619812
美庐锦园,22.53891539,113.9618965
西部福永事业部,22.72481347,113.7793035
恒兆工业区路口,22.7938477,113.832383
恒兆工业区,22.79376131,113.8321594
富美居,22.81451308,113.8770207
居乐苑,22.77067184,113.8484849
龙门市场,22.75637108,113.8632373
侨香三道南,22.55032766,114.0050147
盐田街道办,22.5913045,114.2503879
半山溪谷,22.58940033,114.2378709
望桐桂花路口,22.60705227,114.1643635
新田村,22.60308971,114.1749123
公明建材市场,22.79330537,113.901923
上村居委会,22.79802506,113.8938293
西田社区,22.79940966,113.8944748
台本五金厂,22.81227299,113.8893251
新曲村,22.6962104,114.4036394
赛诺生,22.5514131,113.9316962
直升机场,22.56027798,113.9292738
科技北二路,22.56063427,113.9342611
中山园,22.56195349,113.9187948
西丽社区②,22.57733549,113.9493116
西丽法庭①,22.58112772,113.9494681
新围村,22.58322065,113.9461502
星海名城,22.5409659,113.9100403
南贸市场,22.53656722,113.9143545
南山欢乐颂,22.53796801,113.9145293
南新深南天桥①,22.54070538,113.9151111
中科大厦,22.54187519,113.9481018
大冲②,22.54337274,113.9463974
鹤洲总站,22.6268154,113.8551028
侨城一号广场,22.55122372,113.9807886
侨香深云路口,22.54947465,113.9815319
桃源村西总站,22.56131746,113.9708865
龙珠四路,22.56574603,113.9690953
沙嘴村总站,22.52114249,114.0310143
东方尊峪总站,22.56000587,114.184357
明华中心,22.48784556,113.9076253
招商港务,22.47290369,113.8988826
龙田路口,22.74687182,114.3632325
爱联社区,22.69734321,114.2278278
华源科技创新园,22.57071965,113.8604442
爱安德电子,22.7476449,113.8534202
大浪新围新村,22.69326043,113.9910937
中医院一门诊,22.54676448,114.1072811
深南科苑立交北,22.54671407,113.9406344
龙华汽车站西,22.67247746,114.0240719
牛栏前商业街,22.63843178,114.0336745
华南城工行,22.67835284,114.1225399
华南城南门,22.67479238,114.1231673
洋坑路口,22.69736402,114.1119992
雪象花园新村,22.65375604,114.0733024
万安学校,22.71191457,114.0582574
大布头环观路口,22.70934781,114.0605675
横坑村,22.71368512,114.05112
北部水源管理处,22.69733579,114.0410177
观澜人民法庭,22.69740188,114.0409698
中心广场,22.70336288,114.3438877
丰田村,22.68946553,114.3259489
新作坡居民小组,22.66804838,114.2901212
美丽365花园,22.6649362,114.0247908
观澜交警中队,22.7001736,114.0359732
福民市场,22.71375778,114.0369266
滑草场路口,22.76171632,113.9488006
红湖工业区,22.81900097,113.9398791
龙珠幼儿园,22.57129027,113.9617118
田寮路口,22.73569158,113.9024389
光明大道路口,22.74128098,113.9022455
万丰工业区,22.74668951,113.9015698
公明塘尾,22.75273028,113.9032012
东门④,22.55106498,114.1171993
望桐信告地路口,22.60737668,114.170432
滨海沙河东立交,22.52312814,113.9607389
曙光大厦,22.53996171,113.9515102
豪威大厦,22.56304016,113.934199
第二高级中学,22.57142256,113.9302193
留仙洞,22.58868584,113.9249212
长源村,22.59888513,114.0054814
大磡工业一路口,22.61952052,113.9689501
王京坑路口,22.62387083,113.9696653
大磡综合市场,22.622448,113.9696883
四海公园南,22.49748154,113.9216338
工业七路口,22.49772992,113.9277849
科技北二路南,22.55800441,113.9343112
西乡佳华总站,22.57902394,113.8769526
黄麻布村口,22.66528027,113.8624705
西乡安居家园,22.60797083,113.8401995
固戍地铁站北,22.60553762,113.8410117
宝安机关幼儿园,22.55930937,113.8719916
海湾学校,22.57998644,113.8533898
龙井地铁站,22.56772207,113.9682889
桃源村东,22.5614429,113.9804458
水木华庭,22.56473882,113.9762657
公交大厦总站,22.56103567,114.0604523
科学馆地铁接驳站,22.54251149,114.0911883
华侨城中学高中部,22.53095347,113.9631783
红岭中学高中部,22.56190528,114.0075038
银湖山庄,22.57385094,114.0810423
三九花园,22.57697634,114.0741743
玉龙新村总站,22.58244682,114.0932021
玉龙新村,22.581407,114.0946523
固戍南昌村,22.59692569,113.8326714
固戍污水厂,22.58465175,113.842947
固戍海滨新村,22.5891795,113.8363757
固戍井湾新村,22.59386717,113.8310984
海能达大厦,22.55577469,113.9383148
红岭地铁站,22.55186234,114.0981593
莲花北村①,22.56231618,114.0509521
九州家园,22.73042255,114.2580969
罗瑞合居民小组,22.72649806,114.2610282
摩尔城,22.72315391,114.2627573
西丽法庭③,22.5825868,113.9493552
万科云城总站,22.58167865,113.9327084
联合广场②,22.53144103,114.0646382
茶光,22.56922503,113.9507886
宝安教育城,22.65305718,113.8375487
红山地铁站,22.62515812,114.017803
安芳小学南门,22.54605503,114.1498246
翠榕花园,22.5716532,114.1683446
乐土沃森生命科技中心,22.65168142,114.5236008
小梅沙社区公交总站,22.60609074,114.3223707
桃花公交总站,22.50832994,114.0354617
宝龙公馆公交首末站,22.69131109,114.299406
大王墓园,22.70723958,113.8643376
七沥墓园,22.69823788,113.8583135
金银坑①,22.63073148,114.1585262
红花山地铁站,22.78082354,113.9021219
正大城公交首末站,22.72609318,113.9116866
华夏园总站,22.69053854,113.9209448
坪东村公交首末站,22.78010426,114.312769
南山汽车总站,22.5449768,113.9078797
华为百草园,22.65237956,114.0589397
科学公园地铁站,22.78087236,113.9341193
中山大学西门,22.80004779,113.9403736
大鹏汽车站,22.59923698,114.4687782
西乡大铲湾公交场站,22.55497373,113.8594721
中青路西,22.58695552,114.2345127
红星村,22.71433485,113.9011817
木墩公园,22.76523419,113.9201754
同观路口,22.7313545,113.908597
白石洲①,22.54216108,113.9638502
证通电子产业园,22.73214578,113.9126762
顺平路口,22.69850587,114.1062389
新城广场,22.64713302,114.1802036
华侨墓园西门,22.59862364,114.337831
中兴发展,22.58708579,114.2898047
龙华地铁站,22.65437441,114.0171835
北环科苑天桥,22.555012,113.9358987
莲花北地铁站,22.5634043,114.0542162
后海滨登良路口,22.51557904,113.9335457
下梅林一街,22.56300926,114.0273371
高达苑,22.56374885,114.0305844
福田香格里拉,22.53946767,114.0521771
福田区慢性病防治院,22.53309895,114.0402906
荔园日佳商场,22.69955685,113.7880911
龙岗看守所,22.73775843,114.2900878
平湖第二实验学校,22.70930884,114.1013743
平湖花果山小区,22.68888257,114.1209702
佳业路口,22.69000061,114.1174136
融悦大厦,22.70606736,114.1030584
上步码头总站,22.5329656,114.0821032
石厦南总站,22.51519182,114.0406682
深业东岭总站,22.55052532,114.1350458
宝安实验学校总站,22.55161393,113.8962489
清湖产业园总站,22.67840487,114.0610142
山门场站,22.77991522,113.8531375
茜坑新村总站,22.70054494,114.0281414
阳光科创公交总站,22.5165323,113.9095198
御领公馆公交首末站,22.60043351,114.0069566
航天科创产业园,22.56454709,113.9335446
银星科技园公交首末站,22.72586853,114.0395034
深职院留仙洞校区总站,22.58394851,113.9350907
龙苑新村,22.67581471,114.0069159
仙田外国语学校,22.75557298,114.2695935
公明广场地铁站②,22.78084643,113.8858071
凤凰城地铁站,22.75079475,113.9283465
AB楼,22.64628638,113.8208605
GTC,22.62721562,113.8094485
ITC,22.62565483,113.8132325
机场事业部场站,22.62131772,113.8089586
凉帽山地铁站,22.649516,114.1134396
横岗车辆段,22.63309321,114.1718772
周家大道聚丰路口,22.76422286,113.9198376
坪山心海城总站,22.68182652,114.3392207
怀德翠湖工业区(微巴）,22.6933493,113.8178585
和景工业区总站,22.69211343,113.7804017
西丽社区①,22.57644708,113.9495392
深圳湾公园地铁站①,22.52513731,113.9891095
深湾地铁站,22.5259092,113.9710863
华为基地南门,22.65391547,114.0544381
深圳先进技术学院,22.59721854,113.9869304
上李朗体育中心,22.65799552,114.1159922
坪西社康中心,22.7729616,114.2893483
鹏联佳科技园,22.79724969,114.3353159
香蜜公园西,22.55364044,114.0131216
香荔花园,22.54467239,114.0144022
星河雅宝总站,22.60626456,114.0596361
宝运达物流信息大厦,22.59802062,113.8782214
田寮市场东,22.73172228,113.8991945
上水径地铁站,22.62466764,114.1022468
凤凰城实验学校北,22.73543312,113.9270454
甲子塘社区公园,22.7341079,113.9168465
上石家路口,22.7650875,113.8910839
青青世界公园公交接驳站,22.50798974,113.8937066
铁路公园地铁站,22.5054301,113.885352
艺展三路（微巴）,22.78636733,113.8302859
州航路路口（微巴）,22.61319515,113.8502873
凤凰英荟城,22.7326228,113.9256186
光谷苑西,22.73788021,113.9232197
尚智科技园,22.74082057,113.9212535
长圳地铁站北,22.73050497,113.9259615
逸秀新村天桥,22.60359041,114.0333025
中亚电子（微巴）,22.74095681,113.8165198
亿康书城（微巴）,22.73080722,113.8167571
爱博幼儿园（微巴）,22.73095734,113.8141662
新恒生,22.75899414,114.276287
坪西南路口,22.7545856,114.2771028
五马峰公园,22.75597176,114.4044331
幸福城三期,22.66234877,114.0358529
航城学校,22.61414653,113.8481511
满京华艺象,22.60928916,114.4265033
新大总站,22.54384307,114.508431
新园社区公园,22.58696354,114.2465664
平峦山公交总站,22.6082911,113.8660223
塘新路南(微巴）,22.6928697,113.8153378
立山环保,22.70900859,114.2735487
汤坑横坪路口,22.67001241,114.2974178
坪山中山小学,22.67972741,114.3267084
同辉路中,22.74424055,114.3933411
石岩新村南,22.67612748,113.9213876
凯博电线电缆公司,22.76209268,113.8643442
利达路口,22.63710422,113.830471
沙井公园公交场站（微巴）,22.7405942,113.8123678
明珠市场（微巴）,22.73899413,113.8071272
西荟城（微巴）,22.73546235,113.8110868
沙井地铁口（微巴）,22.73524481,113.8198822
怀德商贸西（微巴）,22.66871499,113.8231162
189工业区,22.66026291,114.2037568
柏怡科技园,22.62705792,114.1842073
壹海城,22.55848763,114.234973
盐田区政府北,22.56043802,114.2316793
西丽湖地铁站,22.59657892,113.9610845
桃源村地铁站,22.56285163,113.9770819
深云村②,22.55975698,113.9865009
下早新村,22.66212675,114.0025806
新和总站,22.66483285,113.8012532
时代景苑总站,22.68382789,113.8270127
星航华府总站,22.64746673,113.8280548
育新学校正门,22.74268975,113.9542354
观光路口,22.73848572,113.9543505
汉开数理高中,22.73313172,114.0233615
麻布村第二工业区,22.68571513,113.8864289
赤湾接驳站,22.48120271,113.8935952
坪洲地铁站西,22.57092159,113.8650628
科技园③,22.54253652,113.9389299
阳台山绿道公交首末站,22.65442109,113.9940986
龙澜观兴北路口,22.70751006,114.0199946
田作居民小组,22.66450482,114.4086698
润杰楼,22.77098725,113.7799417
步步高北门,22.77117125,113.777454
园博园东,22.53953322,114.0024089
步步高北门站,22.77117126,113.777467
田寮炜东城,22.72995753,113.9010696
田寮新村,22.72752557,113.8962207
田寮市场,22.7280584,113.8982511
宝田三路,22.60320982,113.8635687
龙泽苑公交总站,22.60415858,114.0391349
鸿威工业区（微巴）,22.58312005,113.9158013
庭威工业园（微巴）,22.58121746,113.9167342
留仙一路（微巴）,22.57826971,113.9144318
高新奇工业园（微巴）,22.57641794,113.9167895
高新奇南门（微巴）,22.57681204,113.9207451
美生创谷科技创新园（微巴）,22.57868021,113.9222233
安通达工业园（微巴）,22.58202133,113.9235244
福永街道办（微巴）,22.67446131,113.8165381
福永医院（微巴）,22.67411918,113.8148206
富利松白路口,22.78208267,113.8801195
富利南路口,22.77165115,113.8788012
依波大厦,22.77032924,113.8811487
曦湾华府,22.50477336,113.9358939
鑫豪盛大洋工业园（微巴）,22.6921982,113.8112019
富桥第五工业区（微巴）,22.69048494,113.8086333
立新湖创意园(微巴）,22.68892086,113.8067074
鹏福大酒店（微巴）,22.69190428,113.8051041
佳泰健康产业园（微巴）,22.70241339,113.8043956
桥头小学（微巴）,22.69616056,113.8052943
华联百货,22.73452147,113.9148448
凤凰街道办,22.73481522,113.9162446
甲子塘居委会,22.73241179,113.9163827
观澜公坑廊公交总站,22.7147138,114.0864886
新安文体中心,22.58122868,113.917591
松元厦地铁站①,22.72363794,114.057879
横岗大康村公交总站,22.64635149,114.2247277
新飞燕分厂,22.8023289,113.8520635
听泉居总站,22.55584493,114.0054483
大梅沙闻檀道场站,22.60210189,114.2967579
盐田区医院②,22.55966271,114.2291432
李松蓢体育中心,22.80833707,113.8823129
金蓢路,22.80415834,113.8804496
金蓢路口,22.80134788,113.8798178
聚龙金牛东路口,22.71498124,114.4026895
登良地铁站C出口,22.51311213,113.9335289
凉帽山车辆段,22.64406461,114.1116231
石碧西路,22.79406913,114.3287549
白沙湾海生路口,22.64580223,114.4998666
丽湖花园②,22.628879,114.0995116
沙湖麒麟岭路口,22.76452328,114.062987
宏盈天桥,22.71562009,114.1432198
松福大道路口,22.75246174,113.7872449
大铲湾场站,22.5509428,113.8564898
汇聚创新园（微巴）,22.58468272,113.9229286
塘头路口,22.6545588,113.9155068
塘头社区（微巴）,22.66341885,113.9115896
惠阳秋长白石汽车站,22.77152844,114.3745768
卓越后海中心,22.52146855,113.9378366
鹏基工业区②,22.56428016,114.1599885
鹏基工业区①,22.56431499,114.1609651
龙西五联路,22.75003271,114.2367326
新百丽公交总站,22.69300671,113.9734691
上村大桥,22.79664044,113.9008222
铁塔科技园,22.79372677,113.9036947
中泰科技园,22.79104125,113.907467
羌下治安亭,22.81140403,113.9603582
公明大围,22.76640937,113.9075246
梓横西路东,22.74676227,114.3756379
梓横西路西,22.74657464,114.3731412
秀新村幼儿园,22.74741142,114.3720938
新东路北,22.74438568,114.3759909
新东路口南,22.74211321,114.376162
秀新飞达桥,22.74144082,114.3669777
光祖中学,22.74531572,114.3652669
青兰一路南,22.72468455,114.3885426
规划四路东,22.72135193,114.3874187
规划四路西,22.72125182,114.383667
龙翔路口,22.67952746,113.8167053
梅观雪岗桥底,22.66949508,114.0499983
龙瑞佳园天桥,22.48228098,113.8973701
瑞河耶纳北门,22.53010801,113.9725087
惠鑫公寓①,22.60477563,114.040861
梅景,22.56377363,114.0328401
红岭,22.5510628,114.0994704
市民中心,22.54444703,114.0560688
大运,22.68855911,114.2233159
竹子林,22.53616826,114.0088758
机场北,22.654031,113.7930939
清湖,22.66681811,114.0314398
西丽,22.58366162,113.9489404
南联,22.72479412,114.2607018
深云,22.55940758,113.988735
田贝,22.56998596,114.1249818
碧海湾,22.57809162,113.8511629
华强路,22.54314074,114.0800042
机场,22.62696168,113.8086195
华强北,22.54712238,114.0802841
华强南,22.5398954,114.0816971
坂田,22.63016415,114.0657176
赤尾,22.53405683,114.0784694
深圳湾公园,22.52446552,113.9881258
五和,22.62952673,114.0555527
水湾,22.49143365,113.9148293
前海湾,22.54017591,113.8930691
福永,22.67647396,113.8010093
永湖,22.66183193,114.2131813
西乡,22.57817731,113.8581331
灵芝,22.57201537,113.8992963
塘尾,22.70500199,113.8128408
红树湾,22.52808927,113.963504
黄贝岭,22.54881194,114.1312775
科苑,22.53002099,113.9413097
莲花村,22.55134006,114.0627011
上塘,22.63993615,114.0077628
大芬,22.61690345,114.1333099
人民南,22.53820798,114.113062
下水径,22.61751196,114.1055524
侨城北,22.54687749,113.9841685
梅村,22.57115801,114.0473069
香梅北,22.55661878,114.0276322
上水径,22.62472041,114.1002195
罗湖,22.53477769,114.1135751
龙井,22.56693701,113.9697421
兴东,22.58486234,113.9141506
向西村,22.54249443,114.1206894
银湖,22.57102238,114.0846555
香蜜,22.55555397,114.0187857
红岭南,22.54262644,114.0996361
沙井,22.73378066,113.8194127
安托山,22.55161694,114.0012586
太安,22.57618179,114.1320645
百鸽笼,22.59814512,114.1252595
泥岗,22.5704827,114.0925115
塘朗,22.59294592,113.9946567
下梅林,22.56840855,114.0366672
六约,22.63710846,114.1757028
水贝,22.57668661,114.1198926
岗厦北,22.54363002,114.0641119
登良,22.51216531,113.9327297
园岭,22.55897015,114.0993827
蛇口港,22.47967672,113.9074765
侨城东,22.53526923,113.9916531
燕南,22.54722112,114.0874359
长岭陂,22.60221069,114.0052384
龙华,22.654401,114.0173504
后亭,22.75555484,113.8218579
宝安中心,22.55761562,113.8823682
福民,22.52592372,114.0607898
横岗,22.6512709,114.2041172
深湾,22.5259962,113.9736682
东角头,22.48935507,113.926285
侨香,22.55259288,114.0093346
新秀,22.55042564,114.1437414
双龙,22.73161968,114.272587
珠光,22.57123532,113.9556452
高新园,22.54322015,113.9489429
宝华,22.55268599,113.8802139
世界之窗,22.53989477,113.9691372
海月,22.50341727,113.9328171
车公庙,22.53902473,114.0207614
后瑞,22.63181111,113.8304639
大剧院,22.54448507,114.1027021
黄木岗,22.55852299,114.0821511
下沙,22.53168213,114.0192691
通新岭,22.55180605,114.0911505
福田口岸,22.51843112,114.0641465
红山,22.62472447,114.0184379
大新,22.53527996,113.9102138
福田,22.54318137,114.0477972
长龙,22.61073553,114.1087208
洪浪北,22.57759085,113.9057243
岗厦,22.53754852,114.0630628
临海,22.54721317,113.8844522
机场东,22.64994954,113.8176132
大学城,22.58489737,113.9603823
坪洲,22.57194597,113.8658115
后海,22.52143187,113.9376187
桃园,22.53539488,113.9199949
龙胜,22.64754206,114.0069662
香梅,22.54809884,114.034587
松岗,22.7752608,113.8245991
华侨城,22.53638658,113.9803998
晒布,22.55193603,114.1175796
爱联,22.70033445,114.2295826
赤湾,22.4825289,113.8938662
文锦,22.54496823,114.1258954
少年宫,22.55133105,114.0550472
皇岗口岸,22.52440921,114.0690626
碧头,22.78739239,113.8149221
西丽湖,22.59651603,113.9607218
翠竹,22.55898792,114.1249694
沙尾,22.5235357,114.0374798
华新,22.55196067,114.0815192
农林,22.54320972,114.0130834
洪湖,22.56875239,114.1173791
宝安,22.55763776,113.8755133
民治,22.62027696,114.0357474
木棉湾,22.60969846,114.1252207
红树湾南,22.52596197,113.9664983
莲花北,22.56324224,114.0542791
老街,22.54692425,114.1118443
孖岭,22.57115043,114.0626488
湖贝,22.54698873,114.1203585
香蜜湖,22.54163264,114.0335433
宝体,22.56378842,113.8757582
丹竹头,22.62247993,114.1430239
桃源村,22.56280599,113.9769996
湾厦,22.49637064,113.9337315
荷坳,22.67591835,114.2194583
怡景,22.55857822,114.1350689
新安,22.55052213,113.889759
深康,22.54909387,113.9941089
草埔,22.58713511,114.1114019
益田,22.51900795,114.0458761
购物公园,22.5373688,114.0494646
固戍,22.60436357,113.841838
白石龙,22.60430476,114.0373857
上梅林,22.57316525,114.0543165
杨美,22.62945104,114.0748395
科学馆,22.54329846,114.0898229
